id,valor_total,unit,area_util,quartos,vagas,condominio,suites,banheiros,piscina,academia,quadra,endereco,link,bairro,media_bairro,qtd_dados_bairro,media_idh,media_gini,expectativa_vida,renda_percapita,estacao_prox,linha_prox,dist,lat,lon
526,189900,5934.38,32,2,1,180.0,0,1,0,1,0,"Rua Juá Mirim, 300 - Cidade Tiradentes, São Paulo - SP",https://www.vivareal.com.br/imovel/apartamento-2-quartos-cidade-tiradentes-zona-leste-sao-paulo-com-garagem-32m2-venda-RS189900-id-2548078273/,JOSE BONIFACIO,4621.48833333333,36.0,0.697181818181818,0.410909090909091,72.7518181818182,559.668181818182,SÃO MATEUS,PRATA,6822.82368409,-23.583878700238,-46.4175480002021
734,221110,5142.09,43,2,1,250.0,0,1,0,0,1,"Rua Luís Mateus, 100 - Guaianases, São Paulo - SP",https://www.vivareal.com.br/imovel/apartamento-2-quartos-guaianases-zona-leste-sao-paulo-com-garagem-43m2-venda-RS221110-id-2614484926/,JOSE BONIFACIO,4621.48833333333,36.0,0.697181818181818,0.410909090909091,72.7518181818182,559.668181818182,CORINTHIANS-ITAQUERA,VERMELHA,4682.70984080574,-23.5435347002391,-46.4254919002036
738,219990,5116.05,43,1,1,300.0,0,1,1,0,0,"Estrada Itaquera-Guaianases, 2001 - Guaianases, São Paulo - SP",https://www.vivareal.com.br/imovel/apartamento-1-quartos-guaianases-zona-leste-sao-paulo-com-garagem-43m2-venda-RS219990-id-2616541937/,JOSE BONIFACIO,4621.48833333333,36.0,0.697181818181818,0.410909090909091,72.7518181818182,559.668181818182,CORINTHIANS-ITAQUERA,VERMELHA,4579.31112265086,-23.5373392002393,-46.4268225002038
753,219990,5116.05,43,2,1,300.0,0,1,1,0,0,"Estrada Itaquera-Guaianases, 2001 - Guaianases, São Paulo - SP",https://www.vivareal.com.br/imovel/apartamento-2-quartos-guaianases-zona-leste-sao-paulo-com-garagem-43m2-venda-RS219990-id-2610581288/,JOSE BONIFACIO,4621.48833333333,36.0,0.697181818181818,0.410909090909091,72.7518181818182,559.668181818182,CORINTHIANS-ITAQUERA,VERMELHA,4579.31112265086,-23.5373392002393,-46.4268225002038
924,220000,5365.85,41,2,1,300.0,0,1,1,1,1,"Rua Ioneji Matsubayashi, 10 - Itaquera, São Paulo - SP",https://www.vivareal.com.br/imovel/apartamento-2-quartos-itaquera-zona-leste-sao-paulo-com-garagem-41m2-venda-RS220000-id-2524380092/,JOSE BONIFACIO,4621.48833333333,36.0,0.697181818181818,0.410909090909091,72.7518181818182,559.668181818182,CORINTHIANS-ITAQUERA,VERMELHA,3313.91870339093,-23.557799300238,-46.443523200203
927,240000,4285.71,56,2,1,220.0,0,1,0,0,0,"Rua Antônio Bruni - Itaquera, São Paulo - SP",https://www.vivareal.com.br/imovel/apartamento-2-quartos-itaquera-zona-leste-sao-paulo-com-garagem-56m2-venda-RS240000-id-2616777498/,JOSE BONIFACIO,4621.48833333333,36.0,0.697181818181818,0.410909090909091,72.7518181818182,559.668181818182,CORINTHIANS-ITAQUERA,VERMELHA,3358.48073988488,-23.5431266002387,-46.4384555002036
928,192000,3254.24,59,2,1,300.0,0,1,0,0,1,"Rua Daniel Mongolo, 195 - Itaquera, São Paulo - SP",https://www.vivareal.com.br/imovel/apartamento-2-quartos-itaquera-zona-leste-sao-paulo-com-garagem-59m2-venda-RS192000-id-2574773043/,JOSE BONIFACIO,4621.48833333333,36.0,0.697181818181818,0.410909090909091,72.7518181818182,559.668181818182,CORINTHIANS-ITAQUERA,VERMELHA,3487.99035522673,-23.5386763002389,-46.4374140002037
933,239000,5690.48,42,2,0,320.0,0,1,0,0,0,"Rua Agrimensor Sugaya, 1133 - Itaquera, São Paulo - SP",https://www.vivareal.com.br/imovel/apartamento-2-quartos-itaquera-zona-leste-sao-paulo-42m2-venda-RS239000-id-2582153030/,JOSE BONIFACIO,4621.48833333333,36.0,0.697181818181818,0.410909090909091,72.7518181818182,559.668181818182,CORINTHIANS-ITAQUERA,VERMELHA,4097.84644492873,-23.5592323002383,-46.435607100203
937,290000,6304.35,46,2,1,300.0,0,1,1,1,0,"Rua Agrimensor Sugaya, 391 - Itaquera, São Paulo - SP",https://www.vivareal.com.br/imovel/apartamento-2-quartos-itaquera-zona-leste-sao-paulo-com-garagem-46m2-venda-RS290000-id-2580353709/,JOSE BONIFACIO,4621.48833333333,36.0,0.697181818181818,0.410909090909091,72.7518181818182,559.668181818182,CORINTHIANS-ITAQUERA,VERMELHA,3441.82268357484,-23.5577673002381,-46.4420511002031
951,280000,3888.89,72,3,1,372.0,1,1,1,0,0,"Rua Agrimensor Sugaya, 1437 - Itaquera, São Paulo - SP",https://www.vivareal.com.br/imovel/apartamento-3-quartos-itaquera-zona-leste-sao-paulo-com-garagem-72m2-venda-RS280000-id-2596451166/,JOSE BONIFACIO,4621.48833333333,36.0,0.697181818181818,0.410909090909091,72.7518181818182,559.668181818182,CORINTHIANS-ITAQUERA,VERMELHA,4316.97663955294,-23.5584977002384,-46.432839900203
954,170000,3035.71,56,2,1,,0,1,0,0,0,"Rua Lagoa da Barra - Itaquera, São Paulo - SP",https://www.vivareal.com.br/imovel/apartamento-2-quartos-itaquera-zona-leste-sao-paulo-com-garagem-56m2-venda-RS170000-id-2606118976/,JOSE BONIFACIO,4621.48833333333,36.0,0.697181818181818,0.410909090909091,72.7518181818182,559.668181818182,CORINTHIANS-ITAQUERA,VERMELHA,2836.25604099709,-23.5450716002385,-46.4437146002035
1021,230000,5609.76,41,2,1,200.0,0,1,1,1,1,"Rua Ioneji Matsubayashi, 10 - José Bonifácio, São Paulo - SP",https://www.vivareal.com.br/imovel/apartamento-2-quartos-jose-bonifacio-zona-leste-sao-paulo-com-garagem-41m2-venda-RS230000-id-2526996883/,JOSE BONIFACIO,4621.48833333333,36.0,0.697181818181818,0.410909090909091,72.7518181818182,559.668181818182,CORINTHIANS-ITAQUERA,VERMELHA,3313.91870339093,-23.557799300238,-46.443523200203
1022,190000,3877.55,49,2,1,150.0,0,1,0,0,1,"Rua Daniel Mongolo, 180 - José Bonifácio, São Paulo - SP",https://www.vivareal.com.br/imovel/apartamento-2-quartos-jose-bonifacio-zona-leste-sao-paulo-com-garagem-49m2-venda-RS190000-id-2586533151/,JOSE BONIFACIO,4621.48833333333,36.0,0.697181818181818,0.410909090909091,72.7518181818182,559.668181818182,CORINTHIANS-ITAQUERA,VERMELHA,3478.07134967762,-23.5389433002389,-46.4374787002037
1023,143190,3579.75,40,2,1,270.0,0,1,0,0,0,"Rua Chubei Takagashi, 100 - José Bonifácio, São Paulo - SP",https://www.vivareal.com.br/imovel/apartamento-2-quartos-jose-bonifacio-zona-leste-sao-paulo-com-garagem-40m2-venda-RS143190-id-2615623294/,JOSE BONIFACIO,4621.48833333333,36.0,0.697181818181818,0.410909090909091,72.7518181818182,559.668181818182,CORINTHIANS-ITAQUERA,VERMELHA,5225.43094312139,-23.5655420002383,-46.4267474002028
1024,168000,3000.0,56,3,1,250.0,0,1,0,0,0,"Avenida Professor João Batista Conti, 913 - José Bonifácio, São Paulo - SP",https://www.vivareal.com.br/imovel/apartamento-3-quartos-jose-bonifacio-zona-leste-sao-paulo-com-garagem-56m2-venda-RS168000-id-2586504396/,JOSE BONIFACIO,4621.48833333333,36.0,0.697181818181818,0.410909090909091,72.7518181818182,559.668181818182,CORINTHIANS-ITAQUERA,VERMELHA,3922.27222528677,-23.5520887002385,-46.4343945002033
1025,211900,5576.32,38,2,0,,0,1,0,0,0,"Avenida Nagib Farah Maluf, 1470 - José Bonifácio, São Paulo - SP",https://www.vivareal.com.br/imovel/apartamento-2-quartos-jose-bonifacio-zona-leste-sao-paulo-38m2-venda-RS211900-id-2538021539/,JOSE BONIFACIO,4621.48833333333,36.0,0.697181818181818,0.410909090909091,72.7518181818182,559.668181818182,CORINTHIANS-ITAQUERA,VERMELHA,4208.96167096994,-23.5378635002391,-46.4304075002038
1026,190000,3392.86,56,2,1,153.0,0,1,0,0,0,"Rua Marcos Liberi, 189 - José Bonifácio, São Paulo - SP",https://www.vivareal.com.br/imovel/apartamento-2-quartos-jose-bonifacio-zona-leste-sao-paulo-com-garagem-56m2-venda-RS190000-id-2567564890/,JOSE BONIFACIO,4621.48833333333,36.0,0.697181818181818,0.410909090909091,72.7518181818182,559.668181818182,CORINTHIANS-ITAQUERA,VERMELHA,3120.99951452512,-23.5473493002385,-46.4412507002034
1027,215000,6718.75,32,2,0,299.0,0,1,1,0,1,"Rua Sílvio Marques Júnior, 1470 - José Bonifácio, São Paulo - SP",https://www.vivareal.com.br/imovel/apartamento-2-quartos-jose-bonifacio-zona-leste-sao-paulo-32m2-venda-RS215000-id-2615976602/,JOSE BONIFACIO,4621.48833333333,36.0,0.697181818181818,0.410909090909091,72.7518181818182,559.668181818182,CORINTHIANS-ITAQUERA,VERMELHA,4337.18294167421,-23.5387296002391,-46.4290444002037
1028,275000,5851.06,47,2,1,320.0,0,1,1,0,0,"Rua Agrimensor Sugaya - José Bonifácio, São Paulo - SP",https://www.vivareal.com.br/imovel/apartamento-2-quartos-jose-bonifacio-zona-leste-sao-paulo-com-garagem-47m2-venda-RS275000-id-2572406179/,JOSE BONIFACIO,4621.48833333333,36.0,0.697181818181818,0.410909090909091,72.7518181818182,559.668181818182,CORINTHIANS-ITAQUERA,VERMELHA,4010.72043070584,-23.5596551002382,-46.436813500203
1029,215210,4678.48,46,2,1,220.0,0,1,0,0,1,"Rua Sal da Terra, 100 - José Bonifácio, São Paulo - SP",https://www.vivareal.com.br/imovel/apartamento-2-quartos-jose-bonifacio-zona-leste-sao-paulo-com-garagem-46m2-venda-RS215210-id-2615626400/,JOSE BONIFACIO,4621.48833333333,36.0,0.697181818181818,0.410909090909091,72.7518181818182,559.668181818182,CORINTHIANS-ITAQUERA,VERMELHA,4783.24869696999,-23.5530415002388,-46.4259389002032
1030,271997,5912.98,46,2,1,197.0,0,1,1,0,1,"Rua Agrimensor Sugaya, 391 - José Bonifácio, São Paulo - SP",https://www.vivareal.com.br/imovel/apartamento-2-quartos-jose-bonifacio-zona-leste-sao-paulo-com-garagem-46m2-venda-RS271997-id-2569396206/,JOSE BONIFACIO,4621.48833333333,36.0,0.697181818181818,0.410909090909091,72.7518181818182,559.668181818182,CORINTHIANS-ITAQUERA,VERMELHA,3441.82268357484,-23.5577673002381,-46.4420511002031
1031,195039,6094.97,32,2,1,180.0,0,1,0,0,0,"Rua Tomoichi Shimizu, 181 - José Bonifácio, São Paulo - SP",https://www.vivareal.com.br/imovel/apartamento-2-quartos-jose-bonifacio-zona-leste-sao-paulo-com-garagem-32m2-venda-RS195039-id-2533496221/,JOSE BONIFACIO,4621.48833333333,36.0,0.697181818181818,0.410909090909091,72.7518181818182,559.668181818182,CORINTHIANS-ITAQUERA,VERMELHA,4983.95976926501,-23.5774431002375,-46.4407365002023
1032,300000,6382.98,47,2,1,300.0,0,1,0,0,0,"Rua Agrimensor Sugaya - José Bonifácio, São Paulo - SP",https://www.vivareal.com.br/imovel/apartamento-2-quartos-jose-bonifacio-zona-leste-sao-paulo-com-garagem-47m2-venda-RS300000-id-2613521732/,JOSE BONIFACIO,4621.48833333333,36.0,0.697181818181818,0.410909090909091,72.7518181818182,559.668181818182,CORINTHIANS-ITAQUERA,VERMELHA,4010.72043070584,-23.5596551002382,-46.436813500203
1033,310000,6739.13,46,2,1,200.0,0,1,0,0,0,"Rua Agrimensor Sugaya - José Bonifácio, São Paulo - SP",https://www.vivareal.com.br/imovel/apartamento-2-quartos-jose-bonifacio-zona-leste-sao-paulo-com-garagem-46m2-venda-RS310000-id-2613521110/,JOSE BONIFACIO,4621.48833333333,36.0,0.697181818181818,0.410909090909091,72.7518181818182,559.668181818182,CORINTHIANS-ITAQUERA,VERMELHA,4010.72043070584,-23.5596551002382,-46.436813500203
1034,170000,3541.67,48,2,1,230.0,0,1,0,0,0,"Rua Giovanni Quadri - José Bonifácio, São Paulo - SP",https://www.vivareal.com.br/imovel/apartamento-2-quartos-jose-bonifacio-zona-leste-sao-paulo-com-garagem-48m2-venda-RS170000-id-2605187707/,JOSE BONIFACIO,4621.48833333333,36.0,0.697181818181818,0.410909090909091,72.7518181818182,559.668181818182,CORINTHIANS-ITAQUERA,VERMELHA,3857.5839389099,-23.5473927002387,-46.4339500002034
1035,170000,3541.67,48,2,1,,0,1,0,0,0,"Rua Giovanni Quadri - José Bonifácio, São Paulo - SP",https://www.vivareal.com.br/imovel/apartamento-2-quartos-jose-bonifacio-zona-leste-sao-paulo-com-garagem-48m2-venda-RS170000-id-2605180307/,JOSE BONIFACIO,4621.48833333333,36.0,0.697181818181818,0.410909090909091,72.7518181818182,559.668181818182,CORINTHIANS-ITAQUERA,VERMELHA,3857.5839389099,-23.5473927002387,-46.4339500002034
1036,179130,3198.75,56,1,1,150.0,0,1,0,0,0,"Rua Marcos Liberi, 100 - José Bonifácio, São Paulo - SP",https://www.vivareal.com.br/imovel/apartamento-1-quartos-jose-bonifacio-zona-leste-sao-paulo-com-garagem-56m2-venda-RS179130-id-2615622113/,JOSE BONIFACIO,4621.48833333333,36.0,0.697181818181818,0.410909090909091,72.7518181818182,559.668181818182,CORINTHIANS-ITAQUERA,VERMELHA,3029.49240505938,-23.5474322002384,-46.4421785002034
1039,169150,3252.88,52,2,1,220.0,0,1,0,0,1,"Rua Sal da Terra, 100 - José Bonifácio, São Paulo - SP",https://www.vivareal.com.br/imovel/apartamento-2-quartos-jose-bonifacio-zona-leste-sao-paulo-com-garagem-52m2-venda-RS169150-id-2615623738/,JOSE BONIFACIO,4621.48833333333,36.0,0.697181818181818,0.410909090909091,72.7518181818182,559.668181818182,CORINTHIANS-ITAQUERA,VERMELHA,4783.24869696999,-23.5530415002388,-46.4259389002032
1040,300000,6382.98,47,2,1,300.0,0,1,0,0,0,"Rua Agrimensor Sugaya - José Bonifácio, São Paulo - SP",https://www.vivareal.com.br/imovel/apartamento-2-quartos-jose-bonifacio-zona-leste-sao-paulo-com-garagem-47m2-venda-RS300000-id-2613520763/,JOSE BONIFACIO,4621.48833333333,36.0,0.697181818181818,0.410909090909091,72.7518181818182,559.668181818182,CORINTHIANS-ITAQUERA,VERMELHA,4010.72043070584,-23.5596551002382,-46.436813500203
1041,190000,5277.78,36,2,0,100.0,0,1,0,0,0,"Rua Juá Mirim, 350 - José Bonifácio, São Paulo - SP",https://www.vivareal.com.br/imovel/apartamento-2-quartos-jose-bonifacio-zona-leste-sao-paulo-36m2-venda-RS190000-id-2578420039/,JOSE BONIFACIO,4621.48833333333,36.0,0.697181818181818,0.410909090909091,72.7518181818182,559.668181818182,SÃO MATEUS,PRATA,6731.32757633072,-23.584434400238,-46.4182459002021
1042,128000,2560.0,50,2,1,150.0,0,1,0,0,0,"Rua Chubei Takagashi, 651 - José Bonifácio, São Paulo - SP",https://www.vivareal.com.br/imovel/apartamento-2-quartos-jose-bonifacio-zona-leste-sao-paulo-com-garagem-50m2-venda-RS128000-id-2586024757/,JOSE BONIFACIO,4621.48833333333,36.0,0.697181818181818,0.410909090909091,72.7518181818182,559.668181818182,CORINTHIANS-ITAQUERA,VERMELHA,5795.76405129747,-23.5710157002383,-46.4238208002026
1043,300000,4761.9,63,3,1,550.0,1,2,0,0,0,"Rua Agrimensor Sugaya - José Bonifácio, São Paulo - SP",https://www.vivareal.com.br/imovel/apartamento-3-quartos-jose-bonifacio-zona-leste-sao-paulo-com-garagem-63m2-venda-RS300000-id-2613516274/,JOSE BONIFACIO,4621.48833333333,36.0,0.697181818181818,0.410909090909091,72.7518181818182,559.668181818182,CORINTHIANS-ITAQUERA,VERMELHA,4010.72043070584,-23.5596551002382,-46.436813500203
1044,199000,7653.85,26,1,0,,0,1,0,0,0,"José Bonifácio, São Paulo - SP",https://www.vivareal.com.br/imovel/apartamento-1-quartos-jose-bonifacio-zona-leste-sao-paulo-26m2-venda-RS199000-id-2585108740/,JOSE BONIFACIO,4621.48833333333,36.0,0.697181818181818,0.410909090909091,72.7518181818182,559.668181818182,CORINTHIANS-ITAQUERA,VERMELHA,3686.84063520717,-23.5513114002385,-46.4365529002033
1045,350000,5000.0,70,3,1,596.0,1,2,0,0,0,"Rua Agrimensor Sugaya - José Bonifácio, São Paulo - SP",https://www.vivareal.com.br/imovel/apartamento-3-quartos-jose-bonifacio-zona-leste-sao-paulo-com-garagem-70m2-venda-RS350000-id-2613517485/,JOSE BONIFACIO,4621.48833333333,36.0,0.697181818181818,0.410909090909091,72.7518181818182,559.668181818182,CORINTHIANS-ITAQUERA,VERMELHA,4010.72043070584,-23.5596551002382,-46.436813500203
1046,350000,5000.0,70,3,1,596.0,1,2,0,0,0,"Rua Agrimensor Sugaya - José Bonifácio, São Paulo - SP",https://www.vivareal.com.br/imovel/apartamento-3-quartos-jose-bonifacio-zona-leste-sao-paulo-com-garagem-70m2-venda-RS350000-id-2613516439/,JOSE BONIFACIO,4621.48833333333,36.0,0.697181818181818,0.410909090909091,72.7518181818182,559.668181818182,CORINTHIANS-ITAQUERA,VERMELHA,4010.72043070584,-23.5596551002382,-46.436813500203
1047,319000,6934.78,46,2,1,200.0,0,1,1,0,1,"Rua Agrimensor Sugaya, 391 - José Bonifácio, São Paulo - SP",https://www.vivareal.com.br/imovel/apartamento-2-quartos-jose-bonifacio-zona-leste-sao-paulo-com-garagem-46m2-venda-RS319000-id-2598153257/,JOSE BONIFACIO,4621.48833333333,36.0,0.697181818181818,0.410909090909091,72.7518181818182,559.668181818182,CORINTHIANS-ITAQUERA,VERMELHA,3441.82268357484,-23.5577673002381,-46.4420511002031
1048,216062,6173.2,35,2,0,300.0,0,1,1,0,1,"Avenida Nagib Farah Maluf, 1470 - José Bonifácio, São Paulo - SP",https://www.vivareal.com.br/imovel/apartamento-2-quartos-jose-bonifacio-zona-leste-sao-paulo-35m2-venda-RS216062-id-2573484443/,JOSE BONIFACIO,4621.48833333333,36.0,0.697181818181818,0.410909090909091,72.7518181818182,559.668181818182,CORINTHIANS-ITAQUERA,VERMELHA,4208.96167096994,-23.5378635002391,-46.4304075002038
1049,212001,4000.02,53,2,1,240.0,0,1,0,0,0,"José Bonifácio, São Paulo - SP",https://www.vivareal.com.br/imovel/apartamento-2-quartos-jose-bonifacio-zona-leste-sao-paulo-com-garagem-53m2-venda-RS212001-id-2534809257/,JOSE BONIFACIO,4621.48833333333,36.0,0.697181818181818,0.410909090909091,72.7518181818182,559.668181818182,CORINTHIANS-ITAQUERA,VERMELHA,3686.84063520717,-23.5513114002385,-46.4365529002033
1050,325000,5909.09,55,3,1,280.0,0,1,0,0,0,"Rua Agrimensor Sugaya - José Bonifácio, São Paulo - SP",https://www.vivareal.com.br/imovel/apartamento-3-quartos-jose-bonifacio-zona-leste-sao-paulo-com-garagem-55m2-venda-RS325000-id-2613516351/,JOSE BONIFACIO,4621.48833333333,36.0,0.697181818181818,0.410909090909091,72.7518181818182,559.668181818182,CORINTHIANS-ITAQUERA,VERMELHA,4010.72043070584,-23.5596551002382,-46.436813500203
1051,170000,3035.71,56,2,1,150.0,0,1,0,0,0,"Rua José Melani, 62 - José Bonifácio, São Paulo - SP",https://www.vivareal.com.br/imovel/apartamento-2-quartos-jose-bonifacio-zona-leste-sao-paulo-com-garagem-56m2-venda-RS170000-id-2553572344/,JOSE BONIFACIO,4621.48833333333,36.0,0.697181818181818,0.410909090909091,72.7518181818182,559.668181818182,CORINTHIANS-ITAQUERA,VERMELHA,3729.5883632352,-23.5415763002389,-46.4348210002036
1052,164660,3430.42,48,2,1,120.0,0,1,0,0,0,"Rua José Ariza, 100 - José Bonifácio, São Paulo - SP",https://www.vivareal.com.br/imovel/apartamento-2-quartos-jose-bonifacio-zona-leste-sao-paulo-com-garagem-48m2-venda-RS164660-id-2609654024/,JOSE BONIFACIO,4621.48833333333,36.0,0.697181818181818,0.410909090909091,72.7518181818182,559.668181818182,CORINTHIANS-ITAQUERA,VERMELHA,3419.60131966821,-23.5556485002382,-46.4410968002031
1053,150000,3260.87,46,2,1,130.0,0,1,0,0,0,"Rua Francisco Albani - José Bonifácio, São Paulo - SP",https://www.vivareal.com.br/imovel/apartamento-2-quartos-jose-bonifacio-zona-leste-sao-paulo-com-garagem-46m2-venda-RS150000-id-2605187598/,JOSE BONIFACIO,4621.48833333333,36.0,0.697181818181818,0.410909090909091,72.7518181818182,559.668181818182,CORINTHIANS-ITAQUERA,VERMELHA,3833.09220379751,-23.5446966002388,-46.4338809002035
269,245000,4375.0,56,2,2,411.0,1,1,1,0,1,"Avenida Jacobus Baldi - Campo Limpo, São Paulo - SP",https://www.vivareal.com.br/imovel/apartamento-2-quartos-campo-limpo-zona-sul-sao-paulo-com-garagem-56m2-venda-RS245000-id-2574604551/,JARDIM SAO LUIS,5094.11515151515,33.0,0.76296875,0.43875,75.7309375,1137.373125,CAMPO LIMPO,LILAS,1238.79246708085,-23.6550374002244,-46.748702700199
283,230000,4259.26,54,2,1,390.0,1,1,0,0,0,"Rua Antônio de Souza Lobo, 143 - Campo Limpo, São Paulo - SP",https://www.vivareal.com.br/imovel/apartamento-2-quartos-campo-limpo-zona-sul-sao-paulo-com-garagem-54m2-venda-RS230000-id-2545466278/,JARDIM SAO LUIS,5094.11515151515,33.0,0.76296875,0.43875,75.7309375,1137.373125,GIOVANNI GRONCHI,LILAS,1491.63538460949,-23.6549230002246,-46.7429663001991
1317,280000,4666.67,60,2,1,600.0,0,2,0,0,1,"Estrada de Itapecerica, 2006 - Jardim São Luís, São Paulo - SP",https://www.vivareal.com.br/imovel/apartamento-2-quartos-jardim-sao-luis-zona-sul-sao-paulo-com-garagem-60m2-venda-RS280000-id-2428265398/,JARDIM SAO LUIS,5094.11515151515,33.0,0.76296875,0.43875,75.7309375,1137.373125,CAMPO LIMPO,LILAS,697.198953913299,-23.6489740002245,-46.7524110001993
1318,300000,5454.55,55,2,1,250.0,1,2,1,1,1,"Avenida Maria Coelho Aguiar, 298 - Jardim São Luís, São Paulo - SP",https://www.vivareal.com.br/imovel/apartamento-2-quartos-jardim-sao-luis-zona-sul-sao-paulo-com-garagem-55m2-venda-RS300000-id-2603458380/,JARDIM SAO LUIS,5094.11515151515,33.0,0.76296875,0.43875,75.7309375,1137.373125,GIOVANNI GRONCHI,LILAS,540.082775406978,-23.6485339002252,-46.7323167001993
1319,240000,4800.0,50,2,1,400.0,0,1,0,0,0,"Rua Antônio de Souza Lobo, 143 - Jardim São Luís, São Paulo - SP",https://www.vivareal.com.br/imovel/apartamento-2-quartos-jardim-sao-luis-zona-sul-sao-paulo-com-garagem-50m2-venda-RS240000-id-1038146083/,JARDIM SAO LUIS,5094.11515151515,33.0,0.76296875,0.43875,75.7309375,1137.373125,GIOVANNI GRONCHI,LILAS,1508.20290017667,-23.6552905002246,-46.7426819001991
1320,264000,6600.0,40,2,1,350.0,1,1,0,0,0,"Avenida Guido Caloi, 217 - Jardim São Luís, São Paulo - SP",https://www.vivareal.com.br/imovel/apartamento-2-quartos-jardim-sao-luis-zona-sul-sao-paulo-com-garagem-40m2-venda-RS264000-id-2613046800/,JARDIM SAO LUIS,5094.11515151515,33.0,0.76296875,0.43875,75.7309375,1137.373125,GIOVANNI GRONCHI,LILAS,785.328585414701,-23.6472286002254,-46.7274875001994
1321,245900,6471.05,38,2,0,280.0,0,1,1,0,1,"Avenida Maria Coelho Aguiar, 298 - Jardim São Luís, São Paulo - SP",https://www.vivareal.com.br/imovel/apartamento-2-quartos-jardim-sao-luis-zona-sul-sao-paulo-38m2-venda-RS245900-id-2577046445/,JARDIM SAO LUIS,5094.11515151515,33.0,0.76296875,0.43875,75.7309375,1137.373125,GIOVANNI GRONCHI,LILAS,540.082775406978,-23.6485339002252,-46.7323167001993
1322,285000,4453.12,64,2,1,424.0,0,1,0,0,1,"Rua Nova do Tuparoquera, 1 - Jardim São Luís, São Paulo - SP",https://www.vivareal.com.br/imovel/apartamento-2-quartos-jardim-sao-luis-zona-sul-sao-paulo-com-garagem-64m2-venda-RS285000-id-2612999113/,JARDIM SAO LUIS,5094.11515151515,33.0,0.76296875,0.43875,75.7309375,1137.373125,GIOVANNI GRONCHI,LILAS,1477.45747134116,-23.6573007002248,-46.735892700199
1323,219900,5638.46,39,2,0,,0,1,1,1,1,"Rua Vitalina Grassman, 9 - Jardim São Luís, São Paulo - SP",https://www.vivareal.com.br/imovel/apartamento-2-quartos-jardim-sao-luis-zona-sul-sao-paulo-39m2-venda-RS219900-id-2616510612/,JARDIM SAO LUIS,5094.11515151515,33.0,0.76296875,0.43875,75.7309375,1137.373125,GIOVANNI GRONCHI,LILAS,68.6334977749274,-23.6444252002253,-46.7338372001995
1324,480180,7166.87,67,2,2,490.0,1,2,1,0,0,"Rua Gregório Allegri, 295 - Jardim São Luís, São Paulo - SP",https://www.vivareal.com.br/imovel/apartamento-2-quartos-jardim-sao-luis-zona-sul-sao-paulo-com-garagem-67m2-venda-RS480180-id-2616602200/,JARDIM SAO LUIS,5094.11515151515,33.0,0.76296875,0.43875,75.7309375,1137.373125,VILA DAS BELEZAS,LILAS,1114.27096047586,-23.6505323002247,-46.7456416001992
1325,235000,4351.85,54,2,1,410.0,0,1,1,0,0,"Jardim São Luís, São Paulo - SP",https://www.vivareal.com.br/imovel/apartamento-2-quartos-jardim-sao-luis-zona-sul-sao-paulo-com-garagem-54m2-venda-RS235000-id-2607613522/,JARDIM SAO LUIS,5094.11515151515,33.0,0.76296875,0.43875,75.7309375,1137.373125,GIOVANNI GRONCHI,LILAS,823.757527826834,-23.6513756002251,-46.7330562001992
1326,215000,4056.6,53,2,1,350.0,0,1,0,0,1,"Rua Antônio de Souza Lôbo, 143 - Jardim São Luís, São Paulo - SP",https://www.vivareal.com.br/imovel/apartamento-2-quartos-jardim-sao-luis-zona-sul-sao-paulo-com-garagem-53m2-venda-RS215000-id-1040515157/,JARDIM SAO LUIS,5094.11515151515,33.0,0.76296875,0.43875,75.7309375,1137.373125,GIOVANNI GRONCHI,LILAS,1508.20290017667,-23.6552905002246,-46.7426819001991
1327,290000,4677.42,62,2,1,471.0,0,1,0,0,0,"Rua Filipe Neri Teixeira, 57 - Jardim São Luís, São Paulo - SP",https://www.vivareal.com.br/imovel/apartamento-2-quartos-jardim-sao-luis-zona-sul-sao-paulo-com-garagem-62m2-venda-RS290000-id-2583203961/,JARDIM SAO LUIS,5094.11515151515,33.0,0.76296875,0.43875,75.7309375,1137.373125,CAMPO LIMPO,LILAS,1038.06615903675,-23.6517702002245,-46.7493652001992
1328,245000,4454.55,55,2,1,390.0,0,1,0,0,0,"Rua Antônio de Souza Lobo - Jardim São Luís, São Paulo - SP",https://www.vivareal.com.br/imovel/apartamento-2-quartos-jardim-sao-luis-zona-sul-sao-paulo-com-garagem-55m2-venda-RS245000-id-2511223723/,JARDIM SAO LUIS,5094.11515151515,33.0,0.76296875,0.43875,75.7309375,1137.373125,GIOVANNI GRONCHI,LILAS,1474.7127207621,-23.6549540002246,-46.7426334001991
1329,230000,4181.82,55,2,1,430.0,0,1,0,0,0,"Rua Antônio de Souza Lobo - Jardim São Luís, São Paulo - SP",https://www.vivareal.com.br/imovel/apartamento-2-quartos-jardim-sao-luis-zona-sul-sao-paulo-com-garagem-55m2-venda-RS230000-id-2571047269/,JARDIM SAO LUIS,5094.11515151515,33.0,0.76296875,0.43875,75.7309375,1137.373125,GIOVANNI GRONCHI,LILAS,1474.7127207621,-23.6549540002246,-46.7426334001991
1330,270000,5625.0,48,2,1,400.0,0,1,1,0,1,"Rua Filipe Neri Teixeira, 200 - Jardim São Luís, São Paulo - SP",https://www.vivareal.com.br/imovel/apartamento-2-quartos-jardim-sao-luis-zona-sul-sao-paulo-com-garagem-48m2-venda-RS270000-id-84033648/,JARDIM SAO LUIS,5094.11515151515,33.0,0.76296875,0.43875,75.7309375,1137.373125,CAMPO LIMPO,LILAS,1157.01510645257,-23.6533046002245,-46.7486820001991
1331,165000,4583.33,36,2,1,290.0,0,1,0,0,0,"Rua Nova do Tuparoquera - Jardim São Luís, São Paulo - SP",https://www.vivareal.com.br/imovel/apartamento-2-quartos-jardim-sao-luis-zona-sul-sao-paulo-com-garagem-36m2-venda-RS165000-id-2582509136/,JARDIM SAO LUIS,5094.11515151515,33.0,0.76296875,0.43875,75.7309375,1137.373125,SANTO AMARO,LILAS,2030.41090493745,-23.6616272002245,-46.7400763001988
1332,380000,5588.24,68,3,1,515.0,1,2,0,0,0,"Rua Campos dos Goitacazes - Jardim São Luís, São Paulo - SP",https://www.vivareal.com.br/imovel/apartamento-3-quartos-jardim-sao-luis-zona-sul-sao-paulo-com-garagem-68m2-venda-RS380000-id-2613332386/,JARDIM SAO LUIS,5094.11515151515,33.0,0.76296875,0.43875,75.7309375,1137.373125,GIOVANNI GRONCHI,LILAS,1616.29682459403,-23.6563990002246,-46.742777200199
1333,421152,8423.04,50,2,0,,1,1,0,0,0,"Avenida Maria Coelho Aguiar, 238 - Jardim São Luís, São Paulo - SP",https://www.vivareal.com.br/imovel/apartamento-2-quartos-jardim-sao-luis-zona-sul-sao-paulo-50m2-venda-RS421152-id-2616276846/,JARDIM SAO LUIS,5094.11515151515,33.0,0.76296875,0.43875,75.7309375,1137.373125,GIOVANNI GRONCHI,LILAS,482.829684332844,-23.6471985002253,-46.7311035001994
1334,275000,6250.0,44,2,1,450.0,0,1,0,0,0,"Jardim São Luís, São Paulo - SP",https://www.vivareal.com.br/imovel/apartamento-2-quartos-jardim-sao-luis-zona-sul-sao-paulo-com-garagem-44m2-venda-RS275000-id-2576626393/,JARDIM SAO LUIS,5094.11515151515,33.0,0.76296875,0.43875,75.7309375,1137.373125,GIOVANNI GRONCHI,LILAS,823.757527826834,-23.6513756002251,-46.7330562001992
1335,270000,5744.68,47,2,1,175.0,0,1,0,0,0,"Rua Arthur Bliss, 344 - Jardim São Luís, São Paulo - SP",https://www.vivareal.com.br/imovel/apartamento-2-quartos-jardim-sao-luis-zona-sul-sao-paulo-com-garagem-47m2-venda-RS270000-id-2550212284/,JARDIM SAO LUIS,5094.11515151515,33.0,0.76296875,0.43875,75.7309375,1137.373125,GIOVANNI GRONCHI,LILAS,977.733984395319,-23.6494631002248,-46.7419180001993
1336,290000,5576.92,52,2,1,,0,1,0,0,0,"Rua Luiz Grassmann, 774 - Jardim São Luís, São Paulo - SP",https://www.vivareal.com.br/imovel/apartamento-2-quartos-jardim-sao-luis-zona-sul-sao-paulo-com-garagem-52m2-venda-RS290000-id-2601733482/,JARDIM SAO LUIS,5094.11515151515,33.0,0.76296875,0.43875,75.7309375,1137.373125,GIOVANNI GRONCHI,LILAS,651.882762182555,-23.649717100225,-46.7360286001993
1337,270000,3857.14,70,2,1,,0,1,0,1,1,"Rua Campos dos Goitacazes, 10 - Jardim São Luís, São Paulo - SP",https://www.vivareal.com.br/imovel/apartamento-2-quartos-jardim-sao-luis-zona-sul-sao-paulo-com-garagem-70m2-venda-RS270000-id-93436190/,JARDIM SAO LUIS,5094.11515151515,33.0,0.76296875,0.43875,75.7309375,1137.373125,GIOVANNI GRONCHI,LILAS,1585.35274140581,-23.6560509002246,-46.742805800199
1338,315900,5743.64,55,2,1,300.0,1,1,1,1,1,"Avenida Maria Coelho Aguiar, 298 - Jardim São Luís, São Paulo - SP",https://www.vivareal.com.br/imovel/apartamento-2-quartos-jardim-sao-luis-zona-sul-sao-paulo-com-garagem-55m2-venda-RS315900-id-2591927616/,JARDIM SAO LUIS,5094.11515151515,33.0,0.76296875,0.43875,75.7309375,1137.373125,GIOVANNI GRONCHI,LILAS,540.082775406978,-23.6485339002252,-46.7323167001993
1340,230000,4600.0,50,2,1,,0,1,0,0,1,"Rua Antônio de Souza Lobo, 143 - Jardim São Luís, São Paulo - SP",https://www.vivareal.com.br/imovel/apartamento-2-quartos-jardim-sao-luis-zona-sul-sao-paulo-com-garagem-50m2-venda-RS230000-id-2613814899/,JARDIM SAO LUIS,5094.11515151515,33.0,0.76296875,0.43875,75.7309375,1137.373125,GIOVANNI GRONCHI,LILAS,1508.20290017667,-23.6552905002246,-46.7426819001991
1341,299500,4218.31,71,3,1,650.0,1,2,0,0,1,"Rua Nova do Tuparoquera - Jardim São Luís, São Paulo - SP",https://www.vivareal.com.br/imovel/apartamento-3-quartos-jardim-sao-luis-zona-sul-sao-paulo-com-garagem-71m2-venda-RS299500-id-2571416755/,JARDIM SAO LUIS,5094.11515151515,33.0,0.76296875,0.43875,75.7309375,1137.373125,SANTO AMARO,LILAS,2030.41090493745,-23.6616272002245,-46.7400763001988
1342,317000,7547.62,42,2,0,150.0,0,1,0,0,0,"Rua Engenheiro Américo da Graça Martins - Jardim São Luís, São Paulo - SP",https://www.vivareal.com.br/imovel/apartamento-2-quartos-jardim-sao-luis-zona-sul-sao-paulo-42m2-venda-RS317000-id-2615782409/,JARDIM SAO LUIS,5094.11515151515,33.0,0.76296875,0.43875,75.7309375,1137.373125,GIOVANNI GRONCHI,LILAS,384.822203894911,-23.6454896002251,-46.7377856001994
1343,312000,5886.79,53,3,1,300.0,0,2,1,0,0,"Rua Amaro Velho - Jardim São Luís, São Paulo - SP",https://www.vivareal.com.br/imovel/apartamento-3-quartos-jardim-sao-luis-zona-sul-sao-paulo-com-garagem-53m2-venda-RS312000-id-2616360695/,JARDIM SAO LUIS,5094.11515151515,33.0,0.76296875,0.43875,75.7309375,1137.373125,SANTO AMARO,LILAS,1467.96577430148,-23.6664715002247,-46.7297636001987
1344,240000,4067.8,59,3,1,400.0,0,1,0,0,0,"Rua Guilherme Jerônimo Klosternecht, 42 - Jardim São Luís, São Paulo - SP",https://www.vivareal.com.br/imovel/apartamento-3-quartos-jardim-sao-luis-zona-sul-sao-paulo-com-garagem-59m2-venda-RS240000-id-2550212705/,JARDIM SAO LUIS,5094.11515151515,33.0,0.76296875,0.43875,75.7309375,1137.373125,CAMPO LIMPO,LILAS,881.220425414812,-23.6552856002242,-46.753347300199
1345,258000,4777.78,54,2,1,300.0,0,1,0,0,0,"Rua Antônio de Souza Lobo, 143 - Jardim São Luís, São Paulo - SP",https://www.vivareal.com.br/imovel/apartamento-2-quartos-jardim-sao-luis-zona-sul-sao-paulo-com-garagem-54m2-venda-RS258000-id-2567390837/,JARDIM SAO LUIS,5094.11515151515,33.0,0.76296875,0.43875,75.7309375,1137.373125,GIOVANNI GRONCHI,LILAS,1508.20290017667,-23.6552905002246,-46.7426819001991
1346,250000,4629.63,54,2,1,360.0,0,1,0,0,1,"Rua Antônio de Souza Lôbo, 143 - Jardim São Luís, São Paulo - SP",https://www.vivareal.com.br/imovel/apartamento-2-quartos-jardim-sao-luis-zona-sul-sao-paulo-com-garagem-54m2-venda-RS250000-id-1706995479/,JARDIM SAO LUIS,5094.11515151515,33.0,0.76296875,0.43875,75.7309375,1137.373125,GIOVANNI GRONCHI,LILAS,1508.20290017667,-23.6552905002246,-46.7426819001991
1347,316000,8315.79,38,2,1,10.0,0,1,0,0,0,"Avenida Maria Coelho Aguiar, 298 - Jardim São Luís, São Paulo - SP",https://www.vivareal.com.br/imovel/apartamento-2-quartos-jardim-sao-luis-zona-sul-sao-paulo-com-garagem-38m2-venda-RS316000-id-2603941082/,JARDIM SAO LUIS,5094.11515151515,33.0,0.76296875,0.43875,75.7309375,1137.373125,GIOVANNI GRONCHI,LILAS,540.082775406978,-23.6485339002252,-46.7323167001993
1348,250000,4310.34,58,2,1,400.0,0,1,0,0,0,"Avenida Jacobus Baldi, 74 - Jardim São Luís, São Paulo - SP",https://www.vivareal.com.br/imovel/apartamento-2-quartos-jardim-sao-luis-zona-sul-sao-paulo-com-garagem-58m2-venda-RS250000-id-2599557162/,JARDIM SAO LUIS,5094.11515151515,33.0,0.76296875,0.43875,75.7309375,1137.373125,CAMPO LIMPO,LILAS,1577.28841065539,-23.6547314002246,-46.7448647001991
1349,285000,4596.77,62,2,1,471.0,0,1,0,0,0,"Rua Filipe Neri Teixeira, 57 - Jardim São Luís, São Paulo - SP",https://www.vivareal.com.br/imovel/apartamento-2-quartos-jardim-sao-luis-zona-sul-sao-paulo-com-garagem-62m2-venda-RS285000-id-2583203477/,JARDIM SAO LUIS,5094.11515151515,33.0,0.76296875,0.43875,75.7309375,1137.373125,CAMPO LIMPO,LILAS,1038.06615903675,-23.6517702002245,-46.7493652001992
1373,250000,5555.56,45,1,1,385.0,1,1,0,0,0,"Estrada do M'Boi Mirim, 1832 - Jardim Ângela, São Paulo - SP",https://www.vivareal.com.br/imovel/apartamento-1-quartos-jardim-angela-zona-sul-sao-paulo-com-garagem-45m2-venda-RS250000-id-2565407301/,JARDIM SAO LUIS,5094.11515151515,33.0,0.76296875,0.43875,75.7309375,1137.373125,CAPÃO REDONDO,LILAS,2609.77787334814,-23.6755859002237,-46.7497143001983
1379,250000,5555.56,45,1,1,385.0,1,1,0,0,0,"Estrada do M'Boi Mirim, 1832 - Jardim Ângela, São Paulo - SP",https://www.vivareal.com.br/imovel/apartamento-1-quartos-jardim-angela-zona-sul-sao-paulo-com-garagem-45m2-venda-RS250000-id-2564955327/,JARDIM SAO LUIS,5094.11515151515,33.0,0.76296875,0.43875,75.7309375,1137.373125,CAPÃO REDONDO,LILAS,2609.77787334814,-23.6755859002237,-46.7497143001983
1380,250000,5555.56,45,1,1,385.0,1,1,0,0,0,"Estrada do M'Boi Mirim, 1832 - Jardim Ângela, São Paulo - SP",https://www.vivareal.com.br/imovel/apartamento-1-quartos-jardim-angela-zona-sul-sao-paulo-com-garagem-45m2-venda-RS250000-id-2568131030/,JARDIM SAO LUIS,5094.11515151515,33.0,0.76296875,0.43875,75.7309375,1137.373125,CAPÃO REDONDO,LILAS,2609.77787334814,-23.6755859002237,-46.7497143001983
1381,250000,5555.56,45,1,1,385.0,1,1,0,0,0,"Estrada do M'Boi Mirim, 1832 - Jardim Ângela, São Paulo - SP",https://www.vivareal.com.br/imovel/apartamento-1-quartos-jardim-angela-zona-sul-sao-paulo-com-garagem-45m2-venda-RS250000-id-2565227853/,JARDIM SAO LUIS,5094.11515151515,33.0,0.76296875,0.43875,75.7309375,1137.373125,CAPÃO REDONDO,LILAS,2609.77787334814,-23.6755859002237,-46.7497143001983
1382,250000,5555.56,45,1,1,385.0,1,1,0,0,0,"Estrada do M'Boi Mirim, 1832 - Jardim Ângela, São Paulo - SP",https://www.vivareal.com.br/imovel/apartamento-1-quartos-jardim-angela-zona-sul-sao-paulo-com-garagem-45m2-venda-RS250000-id-2565830903/,JARDIM SAO LUIS,5094.11515151515,33.0,0.76296875,0.43875,75.7309375,1137.373125,CAPÃO REDONDO,LILAS,2609.77787334814,-23.6755859002237,-46.7497143001983
615,184900,4108.89,45,2,0,74.0,0,1,0,0,0,"Rua Sonho Gaúcho, 144 - Ponte Rasa, São Paulo - SP",https://www.vivareal.com.br/imovel/apartamento-2-quartos-ponte-rasa-zona-leste-sao-paulo-45m2-venda-RS184900-id-2495601093/,ARTUR ALVIM,4652.31933333333,15.0,0.7605,0.411666666666667,76.1475,826.616666666667,ARTUR ALVIM,VERMELHA,1657.11762419758,-23.5259024002379,-46.4806634002042
922,210000,3559.32,59,2,1,,0,1,0,0,0,"Rua Padre Tomás de Vilanova, 66 - Itaquera, São Paulo - SP",https://www.vivareal.com.br/imovel/apartamento-2-quartos-itaquera-zona-leste-sao-paulo-com-garagem-59m2-venda-RS210000-id-2616713736/,ARTUR ALVIM,4652.31933333333,15.0,0.7605,0.411666666666667,76.1475,826.616666666667,ARTUR ALVIM,VERMELHA,876.447597308469,-23.548089500237,-46.4830109002034
936,210000,3559.32,59,1,1,,0,1,0,0,0,"Rua Padre Tomás de Vilanova, 66 - Itaquera, São Paulo - SP",https://www.vivareal.com.br/imovel/apartamento-1-quartos-itaquera-zona-leste-sao-paulo-com-garagem-59m2-venda-RS210000-id-2616541925/,ARTUR ALVIM,4652.31933333333,15.0,0.7605,0.411666666666667,76.1475,826.616666666667,ARTUR ALVIM,VERMELHA,876.447597308469,-23.548089500237,-46.4830109002034
1681,175000,4729.73,37,2,0,100.0,0,1,0,0,0,"Avenida Águia de Haia, 1000 - Artur Alvim, São Paulo - SP",https://www.vivareal.com.br/imovel/apartamento-2-quartos-artur-alvim-zona-leste-sao-paulo-37m2-venda-RS175000-id-2616769011/,ARTUR ALVIM,4652.31933333333,15.0,0.7605,0.411666666666667,76.1475,826.616666666667,CORINTHIANS-ITAQUERA,VERMELHA,716.157389357496,-23.5370855002376,-46.4753749002038
1682,220000,4150.94,53,2,1,315.0,0,1,0,0,0,"Rua Paratiba - Artur Alvim, São Paulo - SP",https://www.vivareal.com.br/imovel/apartamento-2-quartos-artur-alvim-zona-leste-sao-paulo-com-garagem-53m2-venda-RS220000-id-2616593525/,ARTUR ALVIM,4652.31933333333,15.0,0.7605,0.411666666666667,76.1475,826.616666666667,ARTUR ALVIM,VERMELHA,1477.49559072334,-23.5270373002377,-46.4840589002042
1684,315000,4701.49,67,2,1,420.0,0,1,0,0,1,"Rua Piraquara, 549 - Artur Alvim, São Paulo - SP",https://www.vivareal.com.br/imovel/apartamento-2-quartos-artur-alvim-zona-leste-sao-paulo-com-garagem-67m2-venda-RS315000-id-2614921134/,ARTUR ALVIM,4652.31933333333,15.0,0.7605,0.411666666666667,76.1475,826.616666666667,ARTUR ALVIM,VERMELHA,1593.01516147493,-23.5260224002378,-46.4835746002042
1685,210001,4375.02,48,2,1,160.0,0,1,0,0,0,"Artur Alvim, São Paulo - SP",https://www.vivareal.com.br/imovel/apartamento-2-quartos-artur-alvim-zona-leste-sao-paulo-com-garagem-48m2-venda-RS210001-id-2616660007/,ARTUR ALVIM,4652.31933333333,15.0,0.7605,0.411666666666667,76.1475,826.616666666667,ARTUR ALVIM,VERMELHA,208.456640731853,-23.5393950002373,-46.4830999002037
1688,195000,3482.14,56,2,1,155.0,0,1,0,0,1,"Rua César Diaz, 90 - Artur Alvim, São Paulo - SP",https://www.vivareal.com.br/imovel/apartamento-2-quartos-artur-alvim-zona-leste-sao-paulo-com-garagem-56m2-venda-RS195000-id-2615063194/,ARTUR ALVIM,4652.31933333333,15.0,0.7605,0.411666666666667,76.1475,826.616666666667,ARTUR ALVIM,VERMELHA,1252.15294051811,-23.550938000237,-46.4805218002033
1690,219900,5497.5,40,2,0,150.0,0,1,0,0,0,"Rua Brigadeiro Brito Delamare, 222 - Artur Alvim, São Paulo - SP",https://www.vivareal.com.br/imovel/apartamento-2-quartos-artur-alvim-zona-leste-sao-paulo-40m2-venda-RS219900-id-2615728140/,ARTUR ALVIM,4652.31933333333,15.0,0.7605,0.411666666666667,76.1475,826.616666666667,ARTUR ALVIM,VERMELHA,940.194103340933,-23.5411389002369,-46.4940232002037
1691,240000,5000.0,48,2,1,180.0,0,1,0,0,0,"Rua Davi Banderali, 199 - Artur Alvim, São Paulo - SP",https://www.vivareal.com.br/imovel/apartamento-2-quartos-artur-alvim-zona-leste-sao-paulo-com-garagem-48m2-venda-RS240000-id-2616419327/,ARTUR ALVIM,4652.31933333333,15.0,0.7605,0.411666666666667,76.1475,826.616666666667,CORINTHIANS-ITAQUERA,VERMELHA,1092.7224583626,-23.5498536002371,-46.4783252002034
1694,240000,5714.29,42,2,0,1.0,0,1,0,0,0,"Rua Fernandes Pereira - Artur Alvim, São Paulo - SP",https://www.vivareal.com.br/imovel/apartamento-2-quartos-artur-alvim-zona-leste-sao-paulo-42m2-venda-RS240000-id-2572412764/,ARTUR ALVIM,4652.31933333333,15.0,0.7605,0.411666666666667,76.1475,826.616666666667,ARTUR ALVIM,VERMELHA,912.344511918693,-23.539297300237,-46.4937147002037
1695,180000,4186.05,43,2,1,200.0,0,1,0,0,0,"Rua Domenico Melli - Artur Alvim, São Paulo - SP",https://www.vivareal.com.br/imovel/apartamento-2-quartos-artur-alvim-zona-leste-sao-paulo-com-garagem-43m2-venda-RS180000-id-2616596550/,ARTUR ALVIM,4652.31933333333,15.0,0.7605,0.411666666666667,76.1475,826.616666666667,ARTUR ALVIM,VERMELHA,1383.93356959597,-23.5527628002369,-46.4831951002033
1696,250000,4464.29,56,2,1,250.0,0,1,0,0,0,"Artur Alvim, São Paulo - SP",https://www.vivareal.com.br/imovel/apartamento-2-quartos-artur-alvim-zona-leste-sao-paulo-com-garagem-56m2-venda-RS250000-id-2614040546/,ARTUR ALVIM,4652.31933333333,15.0,0.7605,0.411666666666667,76.1475,826.616666666667,ARTUR ALVIM,VERMELHA,208.456640731853,-23.5393950002373,-46.4830999002037
1698,248845,5924.88,42,2,0,170.0,0,1,0,0,0,"Rua Juciri - Artur Alvim, São Paulo - SP",https://www.vivareal.com.br/imovel/apartamento-2-quartos-artur-alvim-zona-leste-sao-paulo-42m2-venda-RS248845-id-2616052902/,ARTUR ALVIM,4652.31933333333,15.0,0.7605,0.411666666666667,76.1475,826.616666666667,CORINTHIANS-ITAQUERA,VERMELHA,591.528177269425,-23.5398996002375,-46.4764745002037
1700,239451,7256.09,33,2,0,170.0,0,1,0,0,0,"Rua Juciri - Artur Alvim, São Paulo - SP",https://www.vivareal.com.br/imovel/apartamento-2-quartos-artur-alvim-zona-leste-sao-paulo-33m2-venda-RS239451-id-2616343175/,ARTUR ALVIM,4652.31933333333,15.0,0.7605,0.411666666666667,76.1475,826.616666666667,CORINTHIANS-ITAQUERA,VERMELHA,591.528177269425,-23.5398996002375,-46.4764745002037
1701,250000,3731.34,67,2,0,315.0,0,1,0,0,1,"Artur Alvim, São Paulo - SP",https://www.vivareal.com.br/imovel/apartamento-2-quartos-artur-alvim-zona-leste-sao-paulo-67m2-venda-RS250000-id-2612642856/,ARTUR ALVIM,4652.31933333333,15.0,0.7605,0.411666666666667,76.1475,826.616666666667,ARTUR ALVIM,VERMELHA,208.456640731853,-23.5393950002373,-46.4830999002037
1702,580000,3790.85,153,3,5,,1,3,0,0,0,"Rua Blaise Pascal - Artur Alvim, São Paulo - SP",https://www.vivareal.com.br/imovel/apartamento-3-quartos-artur-alvim-zona-leste-sao-paulo-com-garagem-153m2-venda-RS580000-id-2616054748/,ARTUR ALVIM,4652.31933333333,15.0,0.7605,0.411666666666667,76.1475,826.616666666667,ARTUR ALVIM,VERMELHA,1395.75339902887,-23.5303250002378,-46.4765810002041
1703,329001,6451.0,51,2,1,,0,1,0,0,0,"Artur Alvim, São Paulo - SP",https://www.vivareal.com.br/imovel/apartamento-2-quartos-artur-alvim-zona-leste-sao-paulo-com-garagem-51m2-venda-RS329001-id-2537154780/,ARTUR ALVIM,4652.31933333333,15.0,0.7605,0.411666666666667,76.1475,826.616666666667,ARTUR ALVIM,VERMELHA,208.456640731853,-23.5393950002373,-46.4830999002037
1704,245000,5212.77,47,2,0,100.0,0,1,0,0,0,"Rua Peixoto Werneck, 132 - Artur Alvim, São Paulo - SP",https://www.vivareal.com.br/imovel/apartamento-2-quartos-artur-alvim-zona-leste-sao-paulo-47m2-venda-RS245000-id-2569080533/,ARTUR ALVIM,4652.31933333333,15.0,0.7605,0.411666666666667,76.1475,826.616666666667,ARTUR ALVIM,VERMELHA,182.291894009245,-23.5404333002372,-46.4866370002037
1705,220000,5238.1,42,2,0,130.0,0,1,0,0,0,"Rua Cláudio Ptolomeu, 200 - Artur Alvim, São Paulo - SP",https://www.vivareal.com.br/imovel/apartamento-2-quartos-artur-alvim-zona-leste-sao-paulo-42m2-venda-RS220000-id-2611345696/,ARTUR ALVIM,4652.31933333333,15.0,0.7605,0.411666666666667,76.1475,826.616666666667,CORINTHIANS-ITAQUERA,VERMELHA,1041.66622048668,-23.5336341002378,-46.4751074002039
1706,330000,7021.28,47,2,1,260.0,0,1,0,0,0,"Avenida Águia de Haia, 300 - Artur Alvim, São Paulo - SP",https://www.vivareal.com.br/imovel/apartamento-2-quartos-artur-alvim-zona-leste-sao-paulo-com-garagem-47m2-venda-RS330000-id-2583843802/,ARTUR ALVIM,4652.31933333333,15.0,0.7605,0.411666666666667,76.1475,826.616666666667,ARTUR ALVIM,VERMELHA,371.622215046914,-23.5390793002374,-46.4814887002037
1707,215000,5375.0,40,2,0,80.0,0,1,0,0,0,"Avenida Maraial, 136 - Artur Alvim, São Paulo - SP",https://www.vivareal.com.br/imovel/apartamento-2-quartos-artur-alvim-zona-leste-sao-paulo-40m2-venda-RS215000-id-2569376532/,ARTUR ALVIM,4652.31933333333,15.0,0.7605,0.411666666666667,76.1475,826.616666666667,ARTUR ALVIM,VERMELHA,774.544150202595,-23.5334066002374,-46.485679200204
1708,243800,5079.17,48,2,1,,0,1,0,0,0,"Artur Alvim, São Paulo - SP",https://www.vivareal.com.br/imovel/apartamento-2-quartos-artur-alvim-zona-leste-sao-paulo-com-garagem-48m2-venda-RS243800-id-2608186095/,ARTUR ALVIM,4652.31933333333,15.0,0.7605,0.411666666666667,76.1475,826.616666666667,ARTUR ALVIM,VERMELHA,208.456640731853,-23.5393950002373,-46.4830999002037
1709,243800,5079.17,48,2,1,,0,1,0,0,0,"Artur Alvim, São Paulo - SP",https://www.vivareal.com.br/imovel/apartamento-2-quartos-artur-alvim-zona-leste-sao-paulo-com-garagem-48m2-venda-RS243800-id-2608939403/,ARTUR ALVIM,4652.31933333333,15.0,0.7605,0.411666666666667,76.1475,826.616666666667,ARTUR ALVIM,VERMELHA,208.456640731853,-23.5393950002373,-46.4830999002037
1710,245000,5104.17,48,2,1,175.0,0,1,0,0,0,"Rua Davi Banderali, 199 - Artur Alvim, São Paulo - SP",https://www.vivareal.com.br/imovel/apartamento-2-quartos-artur-alvim-zona-leste-sao-paulo-com-garagem-48m2-venda-RS245000-id-2578240315/,ARTUR ALVIM,4652.31933333333,15.0,0.7605,0.411666666666667,76.1475,826.616666666667,CORINTHIANS-ITAQUERA,VERMELHA,1092.7224583626,-23.5498536002371,-46.4783252002034
1711,200000,3571.43,56,2,1,220.0,0,1,0,0,0,"Avenida Waldemar Tietz, 0 - Artur Alvim, São Paulo - SP",https://www.vivareal.com.br/imovel/apartamento-2-quartos-artur-alvim-zona-leste-sao-paulo-com-garagem-56m2-venda-RS200000-id-2572597323/,ARTUR ALVIM,4652.31933333333,15.0,0.7605,0.411666666666667,76.1475,826.616666666667,ARTUR ALVIM,VERMELHA,1119.54103369403,-23.5501911002368,-46.4874073002034
1712,225000,5000.0,45,2,0,,0,1,0,0,0,"Artur Alvim, São Paulo - SP",https://www.vivareal.com.br/imovel/apartamento-2-quartos-artur-alvim-zona-leste-sao-paulo-45m2-venda-RS225000-id-2574545051/,ARTUR ALVIM,4652.31933333333,15.0,0.7605,0.411666666666667,76.1475,826.616666666667,ARTUR ALVIM,VERMELHA,208.456640731853,-23.5393950002373,-46.4830999002037
1450,528000,8800.0,60,2,1,400.0,1,2,1,1,1,"Rua Maria Daffre, 235 - Móoca, São Paulo - SP",https://www.vivareal.com.br/imovel/apartamento-2-quartos-mooca-zona-leste-sao-paulo-com-garagem-60m2-venda-RS528000-id-2616361993/,VILA PRUDENTE,7985.17555555556,18.0,0.8044,0.454,77.5915,1427.0245,VILA PRUDENTE,PRATA,409.575268166606,-23.5843233002323,-46.5880279002021
1452,558000,9300.0,60,2,1,468.0,1,2,1,1,1,"Rua Maria Daffre, 235 - Móoca, São Paulo - SP",https://www.vivareal.com.br/imovel/apartamento-2-quartos-mooca-zona-leste-sao-paulo-com-garagem-60m2-venda-RS558000-id-2616356114/,VILA PRUDENTE,7985.17555555556,18.0,0.8044,0.454,77.5915,1427.0245,VILA PRUDENTE,PRATA,409.575268166606,-23.5843233002323,-46.5880279002021
1462,510000,8947.37,57,2,1,512.0,1,2,0,0,0,"Rua Maria Daffre, 155 - Móoca, São Paulo - SP",https://www.vivareal.com.br/imovel/apartamento-2-quartos-mooca-zona-leste-sao-paulo-com-garagem-57m2-venda-RS510000-id-2520027323/,VILA PRUDENTE,7985.17555555556,18.0,0.8044,0.454,77.5915,1427.0245,VILA PRUDENTE,PRATA,430.361990746924,-23.5834795002323,-46.5880090002021
2473,450000,4245.28,106,3,0,594.0,1,2,0,0,0,"Rua Falchi Gianini, 247 - Vila Prudente, São Paulo - SP",https://www.vivareal.com.br/imovel/apartamento-3-quartos-vila-prudente-zona-leste-sao-paulo-106m2-venda-RS450000-id-2605960535/,VILA PRUDENTE,7985.17555555556,18.0,0.8044,0.454,77.5915,1427.0245,VILA PRUDENTE,VERDE,894.435237494367,-23.5764401002328,-46.5806651002024
2474,540000,8437.5,64,2,1,635.0,1,2,0,0,0,"Rua Ibitirama, 1809 - Vila Prudente, São Paulo - SP",https://www.vivareal.com.br/imovel/apartamento-2-quartos-vila-prudente-zona-leste-sao-paulo-com-garagem-64m2-venda-RS540000-id-2616487154/,VILA PRUDENTE,7985.17555555556,18.0,0.8044,0.454,77.5915,1427.0245,TAMANDUATEÍ,VERDE,1238.3205591029,-23.5954154002323,-46.5779892002016
2475,700000,9722.22,72,2,1,426.0,1,2,1,0,0,"Rua Imbituba, 140 - Vila Prudente, São Paulo - SP",https://www.vivareal.com.br/imovel/apartamento-2-quartos-vila-prudente-zona-leste-sao-paulo-com-garagem-72m2-venda-RS700000-id-2616704503/,VILA PRUDENTE,7985.17555555556,18.0,0.8044,0.454,77.5915,1427.0245,VILA PRUDENTE,PRATA,170.489057541133,-23.5833516002325,-46.5835512002021
2476,585000,7312.5,80,3,2,700.0,1,2,0,0,0,"Rua Guanhães, 60 - Vila Prudente, São Paulo - SP",https://www.vivareal.com.br/imovel/apartamento-3-quartos-vila-prudente-zona-leste-sao-paulo-com-garagem-80m2-venda-RS585000-id-2616832340/,VILA PRUDENTE,7985.17555555556,18.0,0.8044,0.454,77.5915,1427.0245,VILA PRUDENTE,VERDE,708.50864262393,-23.5870800002326,-46.575868200202
2477,508000,7815.38,65,2,1,700.0,1,2,1,0,1,"Rua Ibitirama, 2300 - Vila Prudente, São Paulo - SP",https://www.vivareal.com.br/imovel/apartamento-2-quartos-vila-prudente-zona-leste-sao-paulo-com-garagem-65m2-venda-RS508000-id-2616331456/,VILA PRUDENTE,7985.17555555556,18.0,0.8044,0.454,77.5915,1427.0245,VILA PRUDENTE,VERDE,746.315243746079,-23.5909873002323,-46.5806427002018
2478,700000,9722.22,72,2,1,426.0,1,2,1,0,1,"Rua Imbituba, 140 - Vila Prudente, São Paulo - SP",https://www.vivareal.com.br/imovel/apartamento-2-quartos-vila-prudente-zona-leste-sao-paulo-com-garagem-72m2-venda-RS700000-id-2616682114/,VILA PRUDENTE,7985.17555555556,18.0,0.8044,0.454,77.5915,1427.0245,VILA PRUDENTE,PRATA,170.489057541133,-23.5833516002325,-46.5835512002021
2479,850000,9340.66,91,3,2,900.0,1,2,0,0,0,"Rua Orfanato, 411 - Vila Prudente, São Paulo - SP",https://www.vivareal.com.br/imovel/apartamento-3-quartos-vila-prudente-zona-leste-sao-paulo-com-garagem-91m2-venda-RS850000-id-2616684385/,VILA PRUDENTE,7985.17555555556,18.0,0.8044,0.454,77.5915,1427.0245,VILA PRUDENTE,VERDE,536.095618414447,-23.5796051002327,-46.5814229002022
2480,820000,9879.52,83,3,2,720.0,1,2,1,0,1,"Rua Ettore Ximenes, 313 - Vila Prudente, São Paulo - SP",https://www.vivareal.com.br/imovel/apartamento-3-quartos-vila-prudente-zona-leste-sao-paulo-com-garagem-83m2-venda-RS820000-id-2616706132/,VILA PRUDENTE,7985.17555555556,18.0,0.8044,0.454,77.5915,1427.0245,VILA PRUDENTE,VERDE,162.480868664098,-23.5830453002326,-46.5815502002021
2482,675000,11440.68,59,2,2,610.0,1,2,0,0,0,"Rua Ettore Ximenes, 300 - Vila Prudente, São Paulo - SP",https://www.vivareal.com.br/imovel/apartamento-2-quartos-vila-prudente-zona-leste-sao-paulo-com-garagem-59m2-venda-RS675000-id-2616702324/,VILA PRUDENTE,7985.17555555556,18.0,0.8044,0.454,77.5915,1427.0245,VILA PRUDENTE,VERDE,162.693563557848,-23.5829327002326,-46.5820381002021
2483,380000,7307.69,52,2,1,550.0,0,1,0,0,0,"Rua Ibitirama, 1776 - Vila Prudente, São Paulo - SP",https://www.vivareal.com.br/imovel/apartamento-2-quartos-vila-prudente-zona-leste-sao-paulo-com-garagem-52m2-venda-RS380000-id-2615441134/,VILA PRUDENTE,7985.17555555556,18.0,0.8044,0.454,77.5915,1427.0245,TAMANDUATEÍ,VERDE,1135.52877979588,-23.5947507002323,-46.5788738002017
2484,380000,7037.04,54,2,1,550.0,1,2,1,1,1,"Rua Ibitirama, 2300 - Vila Prudente, São Paulo - SP",https://www.vivareal.com.br/imovel/apartamento-2-quartos-vila-prudente-zona-leste-sao-paulo-com-garagem-54m2-venda-RS380000-id-2616342005/,VILA PRUDENTE,7985.17555555556,18.0,0.8044,0.454,77.5915,1427.0245,VILA PRUDENTE,VERDE,746.315243746079,-23.5909873002323,-46.5806427002018
2485,749000,8415.73,89,2,1,430.0,1,2,1,0,1,"Avenida Professor Luiz Ignácio Anhaia Mello, 2597 - Vila Prudente, São Paulo - SP",https://www.vivareal.com.br/imovel/apartamento-2-quartos-vila-prudente-zona-leste-sao-paulo-com-garagem-89m2-venda-RS749000-id-2615937057/,VILA PRUDENTE,7985.17555555556,18.0,0.8044,0.454,77.5915,1427.0245,ORATÓRIO,PRATA,683.743091444691,-23.582627900233,-46.5688497002021
2486,899000,9879.12,91,3,2,688.0,2,3,0,0,0,"Rua Orfanato, 411 - Vila Prudente, São Paulo - SP",https://www.vivareal.com.br/imovel/apartamento-3-quartos-vila-prudente-zona-leste-sao-paulo-com-garagem-91m2-venda-RS899000-id-2616581332/,VILA PRUDENTE,7985.17555555556,18.0,0.8044,0.454,77.5915,1427.0245,VILA PRUDENTE,VERDE,536.095618414447,-23.5796051002327,-46.5814229002022
2489,690000,7340.43,94,3,2,,1,2,1,0,0,"Avenida Vila Ema, 0 - Vila Prudente, São Paulo - SP",https://www.vivareal.com.br/imovel/apartamento-3-quartos-vila-prudente-zona-leste-sao-paulo-com-garagem-94m2-venda-RS690000-id-2616215239/,VILA PRUDENTE,7985.17555555556,18.0,0.8044,0.454,77.5915,1427.0245,VILA PRUDENTE,VERDE,1094.0752381312,-23.579043700233,-46.5731608002023
2490,458000,7762.71,59,2,1,680.0,0,1,1,1,1,"Rua Torquato Tasso, 713 - Vila Prudente, São Paulo - SP",https://www.vivareal.com.br/imovel/apartamento-2-quartos-vila-prudente-zona-leste-sao-paulo-com-garagem-59m2-venda-RS458000-id-2616347713/,VILA PRUDENTE,7985.17555555556,18.0,0.8044,0.454,77.5915,1427.0245,VILA PRUDENTE,VERDE,664.068862295664,-23.5799038002328,-46.5778611002022
2491,895000,9835.16,91,3,2,688.0,2,3,0,0,0,"Rua Orfanato, 411 - Vila Prudente, São Paulo - SP",https://www.vivareal.com.br/imovel/apartamento-3-quartos-vila-prudente-zona-leste-sao-paulo-com-garagem-91m2-venda-RS895000-id-2616040096/,VILA PRUDENTE,7985.17555555556,18.0,0.8044,0.454,77.5915,1427.0245,VILA PRUDENTE,VERDE,536.095618414447,-23.5796051002327,-46.5814229002022
2494,460000,6388.89,72,3,1,,1,2,1,0,0,"Vila Prudente, São Paulo - SP",https://www.vivareal.com.br/imovel/apartamento-3-quartos-vila-prudente-zona-leste-sao-paulo-com-garagem-72m2-venda-RS460000-id-2616760546/,VILA PRUDENTE,7985.17555555556,18.0,0.8044,0.454,77.5915,1427.0245,VILA PRUDENTE,VERDE,645.053357676093,-23.5790136002328,-46.5797561002022
2495,360000,5000.0,72,2,1,450.0,0,2,0,0,1,"Vila Prudente, São Paulo - SP",https://www.vivareal.com.br/imovel/apartamento-2-quartos-vila-prudente-zona-leste-sao-paulo-com-garagem-72m2-venda-RS360000-id-2616078920/,VILA PRUDENTE,7985.17555555556,18.0,0.8044,0.454,77.5915,1427.0245,VILA PRUDENTE,VERDE,645.053357676093,-23.5790136002328,-46.5797561002022
2498,520000,8965.52,58,2,1,420.0,1,2,0,0,0,"Rua Fabiano Alves, 305 - Vila Prudente, São Paulo - SP",https://www.vivareal.com.br/imovel/apartamento-2-quartos-vila-prudente-zona-leste-sao-paulo-com-garagem-58m2-venda-RS520000-id-2616548916/,VILA PRUDENTE,7985.17555555556,18.0,0.8044,0.454,77.5915,1427.0245,VILA PRUDENTE,VERDE,568.543593896904,-23.5864901002326,-46.577083600202
2499,205000,5857.14,35,2,0,180.0,0,1,0,0,0,"Avenida Vila Ema, 1258 - Vila Prudente, São Paulo - SP",https://www.vivareal.com.br/imovel/apartamento-2-quartos-vila-prudente-zona-leste-sao-paulo-35m2-venda-RS205000-id-2556126522/,VILA PRUDENTE,7985.17555555556,18.0,0.8044,0.454,77.5915,1427.0245,ORATÓRIO,PRATA,260.810624908149,-23.5815602002332,-46.5646072002022
2500,605875,9321.15,65,2,1,462.0,1,2,1,0,1,"Rua Cavour, 614 - Vila Prudente, São Paulo - SP",https://www.vivareal.com.br/imovel/apartamento-2-quartos-vila-prudente-zona-leste-sao-paulo-com-garagem-65m2-venda-RS605875-id-2500726234/,VILA PRUDENTE,7985.17555555556,18.0,0.8044,0.454,77.5915,1427.0245,VILA PRUDENTE,VERDE,408.014421332381,-23.5825564002327,-46.5787068002021
2501,495000,9000.0,55,2,1,500.0,1,2,0,0,0,"Rua Ibitirama - Vila Prudente, São Paulo - SP",https://www.vivareal.com.br/imovel/apartamento-2-quartos-vila-prudente-zona-leste-sao-paulo-com-garagem-55m2-venda-RS495000-id-2616766603/,VILA PRUDENTE,7985.17555555556,18.0,0.8044,0.454,77.5915,1427.0245,VILA PRUDENTE,PRATA,31.3248946362917,-23.5850280002324,-46.584260000202
2502,477000,6718.31,71,2,1,380.0,0,2,0,0,0,"Rua Ibitirama - Vila Prudente, São Paulo - SP",https://www.vivareal.com.br/imovel/apartamento-2-quartos-vila-prudente-zona-leste-sao-paulo-com-garagem-71m2-venda-RS477000-id-2614414421/,VILA PRUDENTE,7985.17555555556,18.0,0.8044,0.454,77.5915,1427.0245,VILA PRUDENTE,PRATA,31.3248946362917,-23.5850280002324,-46.584260000202
2505,675000,11440.68,59,2,2,610.0,1,2,1,0,1,"Rua Ettore Ximenes, 300 - Vila Prudente, São Paulo - SP",https://www.vivareal.com.br/imovel/apartamento-2-quartos-vila-prudente-zona-leste-sao-paulo-com-garagem-59m2-venda-RS675000-id-2616680613/,VILA PRUDENTE,7985.17555555556,18.0,0.8044,0.454,77.5915,1427.0245,VILA PRUDENTE,VERDE,162.693563557848,-23.5829327002326,-46.5820381002021
2537,355000,5071.43,70,3,1,288.0,0,1,0,0,0,"Rua Costa Barros - São Lucas, São Paulo - SP",https://www.vivareal.com.br/imovel/apartamento-3-quartos-sao-lucas-zona-leste-sao-paulo-com-garagem-70m2-venda-RS355000-id-2571483894/,VILA PRUDENTE,7985.17555555556,18.0,0.8044,0.454,77.5915,1427.0245,SÃO LUCAS,PRATA,1360.0528397518,-23.599747200233,-46.5517524002015
137,400000,4000.0,100,3,2,690.0,1,2,0,0,1,"Avenida Escola Politécnica, 416 - Rio Pequeno, São Paulo - SP",https://www.vivareal.com.br/imovel/apartamento-3-quartos-rio-pequeno-zona-oeste-sao-paulo-com-garagem-100m2-venda-RS400000-id-2616622410/,JAGUARE,6763.345,12.0,0.741769230769231,0.436153846153846,74.91,1015.25692307692,BUTANTÃ,AMARELA,3323.58823016592,-23.5528889002283,-46.733546500203
1284,510000,6986.3,73,3,2,573.0,1,2,0,0,0,"Jaguaré, São Paulo - SP",https://www.vivareal.com.br/imovel/apartamento-3-quartos-jaguare-zona-oeste-sao-paulo-com-garagem-73m2-venda-RS510000-id-2567195192/,JAGUARE,6763.345,12.0,0.741769230769231,0.436153846153846,74.91,1015.25692307692,BUTANTÃ,AMARELA,4945.23570035087,-23.5449509002282,-46.7469898002032
1285,680000,9714.29,70,3,2,700.0,1,2,1,1,1,"Avenida General Mac Arthur, 170 - Jaguaré, São Paulo - SP",https://www.vivareal.com.br/imovel/apartamento-3-quartos-jaguare-zona-oeste-sao-paulo-com-garagem-70m2-venda-RS680000-id-2616318641/,JAGUARE,6763.345,12.0,0.741769230769231,0.436153846153846,74.91,1015.25692307692,SÃO PAULO-MORUMBI,AMARELA,4186.42882463475,-23.5555853002278,-46.7477548002028
1286,500000,7936.51,63,2,1,463.0,1,1,0,0,0,"Rua Alexandre Calame, 0 - Jaguaré, São Paulo - SP",https://www.vivareal.com.br/imovel/apartamento-2-quartos-jaguare-zona-oeste-sao-paulo-com-garagem-63m2-venda-RS500000-id-2569353954/,JAGUARE,6763.345,12.0,0.741769230769231,0.436153846153846,74.91,1015.25692307692,BUTANTÃ,AMARELA,3772.43087266363,-23.5529592002282,-46.7390960002029
1287,270000,5000.0,54,2,1,270.0,1,2,1,1,1,"Rua Candomba, 12 - Jaguaré, São Paulo - SP",https://www.vivareal.com.br/imovel/apartamento-2-quartos-jaguare-zona-oeste-sao-paulo-com-garagem-54m2-venda-RS270000-id-2613263842/,JAGUARE,6763.345,12.0,0.741769230769231,0.436153846153846,74.91,1015.25692307692,SÃO PAULO-MORUMBI,AMARELA,5399.97833573125,-23.5490439002276,-46.758010300203
1288,450000,8490.57,53,2,1,380.0,1,1,0,0,0,"Jaguaré, São Paulo - SP",https://www.vivareal.com.br/imovel/apartamento-2-quartos-jaguare-zona-oeste-sao-paulo-com-garagem-53m2-venda-RS450000-id-75242795/,JAGUARE,6763.345,12.0,0.741769230769231,0.436153846153846,74.91,1015.25692307692,BUTANTÃ,AMARELA,4945.23570035087,-23.5449509002282,-46.7469898002032
1289,189000,4973.68,38,2,0,200.0,0,1,0,0,0,"Avenida Dracena, 400 - Jaguaré, São Paulo - SP",https://www.vivareal.com.br/imovel/apartamento-2-quartos-jaguare-zona-oeste-sao-paulo-38m2-venda-RS189000-id-2561202688/,JAGUARE,6763.345,12.0,0.741769230769231,0.436153846153846,74.91,1015.25692307692,BUTANTÃ,AMARELA,5228.23985929732,-23.5408948002283,-46.7469638002034
1290,650000,7831.33,83,3,3,650.0,2,2,1,0,0,"Avenida Venceslau de Queirós - Jaguaré, São Paulo - SP",https://www.vivareal.com.br/imovel/apartamento-3-quartos-jaguare-zona-oeste-sao-paulo-com-garagem-83m2-venda-RS650000-id-2516630132/,JAGUARE,6763.345,12.0,0.741769230769231,0.436153846153846,74.91,1015.25692307692,BUTANTÃ,AMARELA,6398.60064678162,-23.5351158002282,-46.7566837002036
1291,445000,7672.41,58,3,2,584.0,0,1,1,0,0,"Rua Jaguaré, 186 - Jaguaré, São Paulo - SP",https://www.vivareal.com.br/imovel/apartamento-3-quartos-jaguare-zona-oeste-sao-paulo-com-garagem-58m2-venda-RS445000-id-2495890877/,JAGUARE,6763.345,12.0,0.741769230769231,0.436153846153846,74.91,1015.25692307692,BUTANTÃ,AMARELA,4315.05591555197,-23.552508100228,-46.7450606002029
1292,430000,7543.86,57,3,2,701.0,0,1,1,1,0,"Rua Jaguaré, 186 - Jaguaré, São Paulo - SP",https://www.vivareal.com.br/imovel/apartamento-3-quartos-jaguare-zona-oeste-sao-paulo-com-garagem-57m2-venda-RS430000-id-2616831993/,JAGUARE,6763.345,12.0,0.741769230769231,0.436153846153846,74.91,1015.25692307692,BUTANTÃ,AMARELA,4315.05591555197,-23.552508100228,-46.7450606002029
1293,469000,8228.07,57,2,2,650.0,1,1,1,1,0,"Rua Jaguaré, 186 - Jaguaré, São Paulo - SP",https://www.vivareal.com.br/imovel/apartamento-2-quartos-jaguare-zona-oeste-sao-paulo-com-garagem-57m2-venda-RS469000-id-2548326960/,JAGUARE,6763.345,12.0,0.741769230769231,0.436153846153846,74.91,1015.25692307692,BUTANTÃ,AMARELA,4315.05591555197,-23.552508100228,-46.7450606002029
1294,525001,7500.01,70,3,2,520.0,1,2,1,0,0,"Rua Alexandre Calame, 80 - Jaguaré, São Paulo - SP",https://www.vivareal.com.br/imovel/apartamento-3-quartos-jaguare-zona-oeste-sao-paulo-com-garagem-70m2-venda-RS525001-id-2596280390/,JAGUARE,6763.345,12.0,0.741769230769231,0.436153846153846,74.91,1015.25692307692,BUTANTÃ,AMARELA,3730.50188271074,-23.5535947002281,-46.7390620002029
1295,800000,11267.61,71,3,2,800.0,1,2,0,0,0,"Rua Alexandre Calame, 80 - Jaguaré, São Paulo - SP",https://www.vivareal.com.br/imovel/apartamento-3-quartos-jaguare-zona-oeste-sao-paulo-com-garagem-71m2-venda-RS800000-id-2470267796/,JAGUARE,6763.345,12.0,0.741769230769231,0.436153846153846,74.91,1015.25692307692,BUTANTÃ,AMARELA,3730.50188271074,-23.5535947002281,-46.7390620002029
1297,460000,7931.03,58,3,2,585.0,1,1,1,1,0,"Rua Jaguaré - Jaguaré, São Paulo - SP",https://www.vivareal.com.br/imovel/apartamento-3-quartos-jaguare-zona-oeste-sao-paulo-com-garagem-58m2-venda-RS460000-id-2615899930/,JAGUARE,6763.345,12.0,0.741769230769231,0.436153846153846,74.91,1015.25692307692,SÃO PAULO-MORUMBI,AMARELA,4319.98307999399,-23.5527998002279,-46.7454778002029
1298,445000,7416.67,60,3,1,640.0,1,2,1,0,0,"Jaguaré, São Paulo - SP",https://www.vivareal.com.br/imovel/apartamento-3-quartos-jaguare-zona-oeste-sao-paulo-com-garagem-60m2-venda-RS445000-id-1997425473/,JAGUARE,6763.345,12.0,0.741769230769231,0.436153846153846,74.91,1015.25692307692,BUTANTÃ,AMARELA,4945.23570035087,-23.5449509002282,-46.7469898002032
1299,437000,7048.39,62,2,1,800.0,1,2,0,0,0,"Travessa Presidente Altino - Jaguaré, São Paulo - SP",https://www.vivareal.com.br/imovel/apartamento-2-quartos-jaguare-zona-oeste-sao-paulo-com-garagem-62m2-venda-RS437000-id-2615838297/,JAGUARE,6763.345,12.0,0.741769230769231,0.436153846153846,74.91,1015.25692307692,BUTANTÃ,AMARELA,5593.91645615349,-23.542158500228,-46.7526587002033
1300,510000,6986.3,73,3,2,573.0,1,2,0,0,0,"Jaguaré, São Paulo - SP",https://www.vivareal.com.br/imovel/apartamento-3-quartos-jaguare-zona-oeste-sao-paulo-com-garagem-73m2-venda-RS510000-id-2567191891/,JAGUARE,6763.345,12.0,0.741769230769231,0.436153846153846,74.91,1015.25692307692,BUTANTÃ,AMARELA,4945.23570035087,-23.5449509002282,-46.7469898002032
1301,340000,5862.07,58,2,1,500.0,0,2,0,0,0,"Avenida Corifeu de Azevedo Marques, 5680 - Jaguaré, São Paulo - SP",https://www.vivareal.com.br/imovel/apartamento-2-quartos-jaguare-zona-oeste-sao-paulo-com-garagem-58m2-venda-RS340000-id-2560378412/,JAGUARE,6763.345,12.0,0.741769230769231,0.436153846153846,74.91,1015.25692307692,SÃO PAULO-MORUMBI,AMARELA,4845.78655637451,-23.5540553002275,-46.7559896002029
1302,540000,7714.29,70,3,2,550.0,1,2,1,0,1,"Rua Alexandre Calame, 80 - Jaguaré, São Paulo - SP",https://www.vivareal.com.br/imovel/apartamento-3-quartos-jaguare-zona-oeste-sao-paulo-com-garagem-70m2-venda-RS540000-id-2589620562/,JAGUARE,6763.345,12.0,0.741769230769231,0.436153846153846,74.91,1015.25692307692,BUTANTÃ,AMARELA,3730.50188271074,-23.5535947002281,-46.7390620002029
1303,350000,5833.33,60,2,2,410.0,0,1,0,0,0,"Avenida Miguel Frias e Vasconcelos - Jaguaré, São Paulo - SP",https://www.vivareal.com.br/imovel/apartamento-2-quartos-jaguare-zona-oeste-sao-paulo-com-garagem-60m2-venda-RS350000-id-2477004302/,JAGUARE,6763.345,12.0,0.741769230769231,0.436153846153846,74.91,1015.25692307692,BUTANTÃ,AMARELA,4112.58506583487,-23.553185400228,-46.7431928002029
1304,284900,5698.0,50,2,1,550.0,0,1,1,0,1,"Rua Floresto Bandecchi, 479 - Jaguaré, São Paulo - SP",https://www.vivareal.com.br/imovel/apartamento-2-quartos-jaguare-zona-oeste-sao-paulo-com-garagem-50m2-venda-RS284900-id-2605729843/,JAGUARE,6763.345,12.0,0.741769230769231,0.436153846153846,74.91,1015.25692307692,BUTANTÃ,AMARELA,5526.20811276781,-23.5444433002279,-46.7535828002032
1305,550000,7971.01,69,3,2,675.0,1,2,0,0,0,"Rua Francisco Pedro do Amaral, 1 - Jaguaré, São Paulo - SP",https://www.vivareal.com.br/imovel/apartamento-3-quartos-jaguare-zona-oeste-sao-paulo-com-garagem-69m2-venda-RS550000-id-2564351503/,JAGUARE,6763.345,12.0,0.741769230769231,0.436153846153846,74.91,1015.25692307692,SÃO PAULO-MORUMBI,AMARELA,4561.69815748258,-23.5517653002279,-46.748177900203
1306,640000,7804.88,82,3,2,700.0,1,3,0,0,0,"Rua Parnamirim, 110 - Jaguaré, São Paulo - SP",https://www.vivareal.com.br/imovel/apartamento-3-quartos-jaguare-zona-oeste-sao-paulo-com-garagem-82m2-venda-RS640000-id-2427739979/,JAGUARE,6763.345,12.0,0.741769230769231,0.436153846153846,74.91,1015.25692307692,BUTANTÃ,AMARELA,5148.46694007015,-23.5447002002281,-46.7492702002032
1307,400000,5970.15,67,2,1,800.0,1,2,0,0,0,"Jaguaré, São Paulo - SP",https://www.vivareal.com.br/imovel/apartamento-2-quartos-jaguare-zona-oeste-sao-paulo-com-garagem-67m2-venda-RS400000-id-2574599109/,JAGUARE,6763.345,12.0,0.741769230769231,0.436153846153846,74.91,1015.25692307692,BUTANTÃ,AMARELA,4945.23570035087,-23.5449509002282,-46.7469898002032
1308,550000,7857.14,70,3,2,550.0,1,2,1,0,0,"Jaguaré, São Paulo - SP",https://www.vivareal.com.br/imovel/apartamento-3-quartos-jaguare-zona-oeste-sao-paulo-com-garagem-70m2-venda-RS550000-id-2452938484/,JAGUARE,6763.345,12.0,0.741769230769231,0.436153846153846,74.91,1015.25692307692,BUTANTÃ,AMARELA,4945.23570035087,-23.5449509002282,-46.7469898002032
1309,480000,7384.62,65,2,1,700.0,1,2,0,0,1,"Avenida Miguel Frias e Vasconcelos - Jaguaré, São Paulo - SP",https://www.vivareal.com.br/imovel/apartamento-2-quartos-jaguare-zona-oeste-sao-paulo-com-garagem-65m2-venda-RS480000-id-2555016315/,JAGUARE,6763.345,12.0,0.741769230769231,0.436153846153846,74.91,1015.25692307692,BUTANTÃ,AMARELA,4112.58506583487,-23.553185400228,-46.7431928002029
1310,427500,6679.69,64,2,1,440.0,1,2,1,1,1,"Rua Alexandre Calame, 80 - Jaguaré, São Paulo - SP",https://www.vivareal.com.br/imovel/apartamento-2-quartos-jaguare-zona-oeste-sao-paulo-com-garagem-64m2-venda-RS427500-id-2616625537/,JAGUARE,6763.345,12.0,0.741769230769231,0.436153846153846,74.91,1015.25692307692,BUTANTÃ,AMARELA,3730.50188271074,-23.5535947002281,-46.7390620002029
1311,549000,7038.46,78,3,2,650.0,1,2,1,0,1,"Avenida Miguel Frias e Vasconcelos, 1339 - Jaguaré, São Paulo - SP",https://www.vivareal.com.br/imovel/apartamento-3-quartos-jaguare-zona-oeste-sao-paulo-com-garagem-78m2-venda-RS549000-id-2615603234/,JAGUARE,6763.345,12.0,0.741769230769231,0.436153846153846,74.91,1015.25692307692,BUTANTÃ,AMARELA,4664.22022439174,-23.548606300228,-46.7464467002031
1312,550000,7857.14,70,3,1,577.0,1,2,0,0,0,"Avenida Marechal Mário Guedes, 2 - Jaguaré, São Paulo - SP",https://www.vivareal.com.br/imovel/apartamento-3-quartos-jaguare-zona-oeste-sao-paulo-com-garagem-70m2-venda-RS550000-id-2521984141/,JAGUARE,6763.345,12.0,0.741769230769231,0.436153846153846,74.91,1015.25692307692,BUTANTÃ,AMARELA,3612.98888300254,-23.5500147002284,-46.7345862002031
1313,500000,7462.69,67,3,2,700.0,1,2,1,0,1,"Rua Francisco Pedro do Amaral, 251 - Jaguaré, São Paulo - SP",https://www.vivareal.com.br/imovel/apartamento-3-quartos-jaguare-zona-oeste-sao-paulo-com-garagem-67m2-venda-RS500000-id-2616982936/,JAGUARE,6763.345,12.0,0.741769230769231,0.436153846153846,74.91,1015.25692307692,BUTANTÃ,AMARELA,4648.37202257626,-23.549269400228,-46.746734700203
1314,700000,10000.0,70,3,2,551.0,1,2,0,0,0,"Avenida Marechal Mário Guedes, 2 - Jaguaré, São Paulo - SP",https://www.vivareal.com.br/imovel/apartamento-3-quartos-jaguare-zona-oeste-sao-paulo-com-garagem-70m2-venda-RS700000-id-2598028172/,JAGUARE,6763.345,12.0,0.741769230769231,0.436153846153846,74.91,1015.25692307692,BUTANTÃ,AMARELA,3612.98888300254,-23.5500147002284,-46.7345862002031
1315,285000,5816.33,49,2,1,500.0,0,1,1,0,0,"Jaguaré, São Paulo - SP",https://www.vivareal.com.br/imovel/apartamento-2-quartos-jaguare-zona-oeste-sao-paulo-com-garagem-49m2-venda-RS285000-id-2591588699/,JAGUARE,6763.345,12.0,0.741769230769231,0.436153846153846,74.91,1015.25692307692,BUTANTÃ,AMARELA,4945.23570035087,-23.5449509002282,-46.7469898002032
1316,530000,6794.87,78,3,2,653.0,1,2,0,0,0,"Avenida Miguel Frias e Vasconcelos, 1339 - Jaguaré, São Paulo - SP",https://www.vivareal.com.br/imovel/apartamento-3-quartos-jaguare-zona-oeste-sao-paulo-com-garagem-78m2-venda-RS530000-id-2613065518/,JAGUARE,6763.345,12.0,0.741769230769231,0.436153846153846,74.91,1015.25692307692,BUTANTÃ,AMARELA,4664.22022439174,-23.548606300228,-46.7464467002031
643,208000,3714.29,56,2,1,80.0,1,1,0,0,0,"Rua Lucinda Simões, 52 - Brasilândia, São Paulo - SP",https://www.vivareal.com.br/imovel/apartamento-2-quartos-brasilandia-zona-norte-sao-paulo-com-garagem-56m2-venda-RS208000-id-2543586577/,JARAGUA,5316.70136363636,22.0,0.739034482758621,0.418965517241379,74.8689655172414,711.43275862069,PALMEIRAS-BARRA FUNDA,VERMELHA,10018.6580496412,-23.4471028002324,-46.715587300207
649,212000,3785.71,56,2,1,91.0,1,1,0,0,0,"Avenida Elísio Teixeira Leite, 6438 - Brasilândia, São Paulo - SP",https://www.vivareal.com.br/imovel/apartamento-2-quartos-brasilandia-zona-norte-sao-paulo-com-garagem-56m2-venda-RS212000-id-2543584600/,JARAGUA,5316.70136363636,22.0,0.739034482758621,0.418965517241379,74.8689655172414,711.43275862069,PALMEIRAS-BARRA FUNDA,VERMELHA,10128.6871229715,-23.4466386002324,-46.716884300207
1779,285000,5816.33,49,2,1,340.0,0,1,0,0,0,"Avenida Raimundo Pereira de Magalhães, 12011 - Pirituba, São Paulo - SP",https://www.vivareal.com.br/imovel/apartamento-2-quartos-pirituba-zona-norte-sao-paulo-com-garagem-49m2-venda-RS285000-id-2586707690/,JARAGUA,5316.70136363636,22.0,0.739034482758621,0.418965517241379,74.8689655172414,711.43275862069,PALMEIRAS-BARRA FUNDA,VERMELHA,11440.0431688051,-23.4354835002326,-46.7215608002074
1783,299000,3986.67,75,2,0,200.0,0,1,0,0,0,"Rua Barra de Bacururu, 51 - Jaragua, São Paulo - SP",https://www.vivareal.com.br/imovel/apartamento-2-quartos-jaragua-zona-norte-sao-paulo-75m2-venda-RS299000-id-2616482597/,JARAGUA,5316.70136363636,22.0,0.739034482758621,0.418965517241379,74.8689655172414,711.43275862069,PALMEIRAS-BARRA FUNDA,VERMELHA,10818.1314052547,-23.4499775002317,-46.7341151002068
1784,265000,4818.18,55,2,1,356.0,0,1,0,0,0,"Jaragua, São Paulo - SP",https://www.vivareal.com.br/imovel/apartamento-2-quartos-jaragua-zona-norte-sao-paulo-com-garagem-55m2-venda-RS265000-id-2428304035/,JARAGUA,5316.70136363636,22.0,0.739034482758621,0.418965517241379,74.8689655172414,711.43275862069,PALMEIRAS-BARRA FUNDA,VERMELHA,10868.8232479128,-23.4574972002311,-46.7438130002065
1785,280000,6086.96,46,2,1,,0,1,0,0,1,"Jaragua, São Paulo - SP",https://www.vivareal.com.br/imovel/apartamento-2-quartos-jaragua-zona-norte-sao-paulo-com-garagem-46m2-venda-RS280000-id-2616749109/,JARAGUA,5316.70136363636,22.0,0.739034482758621,0.418965517241379,74.8689655172414,711.43275862069,PALMEIRAS-BARRA FUNDA,VERMELHA,10868.8232479128,-23.4574972002311,-46.7438130002065
1786,310000,7209.3,43,2,0,320.0,0,1,1,1,1,"Avenida Nelson Palma Travassos, 222 - Jaragua, São Paulo - SP",https://www.vivareal.com.br/imovel/apartamento-2-quartos-jaragua-zona-norte-sao-paulo-43m2-venda-RS310000-id-2577300953/,JARAGUA,5316.70136363636,22.0,0.739034482758621,0.418965517241379,74.8689655172414,711.43275862069,PALMEIRAS-BARRA FUNDA,VERMELHA,10864.8261370885,-23.4423135002323,-46.7231090002071
1788,210000,4565.22,46,2,0,280.0,0,1,0,0,0,"Avenida Doutor José Maniero, 135 - Jaragua, São Paulo - SP",https://www.vivareal.com.br/imovel/apartamento-2-quartos-jaragua-zona-norte-sao-paulo-46m2-venda-RS210000-id-2501147179/,JARAGUA,5316.70136363636,22.0,0.739034482758621,0.418965517241379,74.8689655172414,711.43275862069,PALMEIRAS-BARRA FUNDA,VERMELHA,10782.1746962487,-23.436982800233,-46.7103376002073
1789,380000,7037.04,54,3,1,397.0,0,1,0,0,0,"Rua Miguel Petrilli, 150 - Jaragua, São Paulo - SP",https://www.vivareal.com.br/imovel/apartamento-3-quartos-jaragua-zona-norte-sao-paulo-com-garagem-54m2-venda-RS380000-id-2577765713/,JARAGUA,5316.70136363636,22.0,0.739034482758621,0.418965517241379,74.8689655172414,711.43275862069,VILA MADALENA,VERDE,10617.0097365924,-23.4714220002303,-46.755811500206
1790,195000,3750.0,52,2,1,,0,1,0,0,0,"Jaragua, São Paulo - SP",https://www.vivareal.com.br/imovel/apartamento-2-quartos-jaragua-zona-norte-sao-paulo-com-garagem-52m2-venda-RS195000-id-2616813309/,JARAGUA,5316.70136363636,22.0,0.739034482758621,0.418965517241379,74.8689655172414,711.43275862069,PALMEIRAS-BARRA FUNDA,VERMELHA,10868.8232479128,-23.4574972002311,-46.7438130002065
1791,120000,2400.0,50,2,0,140.0,0,1,0,0,0,"Rua Friedrich Von Voith, 1735 - Jaragua, São Paulo - SP",https://www.vivareal.com.br/imovel/apartamento-2-quartos-jaragua-zona-norte-sao-paulo-50m2-venda-RS120000-id-2615351536/,JARAGUA,5316.70136363636,22.0,0.739034482758621,0.418965517241379,74.8689655172414,711.43275862069,PALMEIRAS-BARRA FUNDA,VERMELHA,12424.2992243714,-23.4361942002319,-46.7405014002073
1793,310000,7750.0,40,2,1,,1,1,1,1,0,"Avenida Professor Miguel Franchini Neto - Jaragua, São Paulo - SP",https://www.vivareal.com.br/imovel/apartamento-2-quartos-jaragua-zona-norte-sao-paulo-com-garagem-40m2-venda-RS310000-id-2548644654/,JARAGUA,5316.70136363636,22.0,0.739034482758621,0.418965517241379,74.8689655172414,711.43275862069,PALMEIRAS-BARRA FUNDA,VERMELHA,10856.8834272122,-23.4437152002322,-46.7253790002071
1794,339000,4402.6,77,2,0,200.0,0,1,0,0,0,"Rua Barra de Bacururu, 51 - Jaragua, São Paulo - SP",https://www.vivareal.com.br/imovel/apartamento-2-quartos-jaragua-zona-norte-sao-paulo-77m2-venda-RS339000-id-2616481252/,JARAGUA,5316.70136363636,22.0,0.739034482758621,0.418965517241379,74.8689655172414,711.43275862069,PALMEIRAS-BARRA FUNDA,VERMELHA,10818.1314052547,-23.4499775002317,-46.7341151002068
1795,265000,6162.79,43,2,1,347.0,0,1,0,0,0,"Jaragua, São Paulo - SP",https://www.vivareal.com.br/imovel/apartamento-2-quartos-jaragua-zona-norte-sao-paulo-com-garagem-43m2-venda-RS265000-id-2616639235/,JARAGUA,5316.70136363636,22.0,0.739034482758621,0.418965517241379,74.8689655172414,711.43275862069,PALMEIRAS-BARRA FUNDA,VERMELHA,10868.8232479128,-23.4574972002311,-46.7438130002065
1796,265000,6309.52,42,2,1,373.0,0,1,0,0,0,"Rua Professor Nobil Marcacini, 200 - Jaragua, São Paulo - SP",https://www.vivareal.com.br/imovel/apartamento-2-quartos-jaragua-zona-norte-sao-paulo-com-garagem-42m2-venda-RS265000-id-2554428366/,JARAGUA,5316.70136363636,22.0,0.739034482758621,0.418965517241379,74.8689655172414,711.43275862069,PALMEIRAS-BARRA FUNDA,VERMELHA,11079.3821885957,-23.4405120002324,-46.7239398002072
1798,265000,5888.89,45,2,1,430.0,0,1,1,0,0,"Rua Professor Nobil Marcacini, 200 - Jaragua, São Paulo - SP",https://www.vivareal.com.br/imovel/apartamento-2-quartos-jaragua-zona-norte-sao-paulo-com-garagem-45m2-venda-RS265000-id-2596656216/,JARAGUA,5316.70136363636,22.0,0.739034482758621,0.418965517241379,74.8689655172414,711.43275862069,PALMEIRAS-BARRA FUNDA,VERMELHA,11079.3821885957,-23.4405120002324,-46.7239398002072
1799,207000,4928.57,42,2,1,240.0,0,1,0,0,1,"Rua Friedrich Von Voith - Jaragua, São Paulo - SP",https://www.vivareal.com.br/imovel/apartamento-2-quartos-jaragua-zona-norte-sao-paulo-com-garagem-42m2-venda-RS207000-id-2616770997/,JARAGUA,5316.70136363636,22.0,0.739034482758621,0.418965517241379,74.8689655172414,711.43275862069,PALMEIRAS-BARRA FUNDA,VERMELHA,12116.84369556,-23.4395346002318,-46.7402903002072
1800,245000,4900.0,50,2,1,286.0,0,1,0,1,1,"Rua Miguel Petrilli, 150 - Jaragua, São Paulo - SP",https://www.vivareal.com.br/imovel/apartamento-2-quartos-jaragua-zona-norte-sao-paulo-com-garagem-50m2-venda-RS245000-id-2562535521/,JARAGUA,5316.70136363636,22.0,0.739034482758621,0.418965517241379,74.8689655172414,711.43275862069,VILA MADALENA,VERDE,10617.0097365924,-23.4714220002303,-46.755811500206
1802,245000,5104.17,48,2,1,200.0,0,1,0,0,1,"Rua Jairo de Almeida Machado - Jaragua, São Paulo - SP",https://www.vivareal.com.br/imovel/apartamento-2-quartos-jaragua-zona-norte-sao-paulo-com-garagem-48m2-venda-RS245000-id-2527484234/,JARAGUA,5316.70136363636,22.0,0.739034482758621,0.418965517241379,74.8689655172414,711.43275862069,PALMEIRAS-BARRA FUNDA,VERMELHA,11048.7378139353,-23.4422870002322,-46.7264429002071
1803,400000,5970.15,67,3,1,,1,2,1,0,0,"Avenida Nelson Palma Travassos - Jaragua, São Paulo - SP",https://www.vivareal.com.br/imovel/apartamento-3-quartos-jaragua-zona-norte-sao-paulo-com-garagem-67m2-venda-RS400000-id-2614620347/,JARAGUA,5316.70136363636,22.0,0.739034482758621,0.418965517241379,74.8689655172414,711.43275862069,PALMEIRAS-BARRA FUNDA,VERMELHA,10939.0406818649,-23.4420804002323,-46.7240841002071
1804,200000,4761.9,42,2,1,,0,1,0,0,0,"Rua Jairo de Almeida Machado - Jaragua, São Paulo - SP",https://www.vivareal.com.br/imovel/apartamento-2-quartos-jaragua-zona-norte-sao-paulo-com-garagem-42m2-venda-RS200000-id-2616441196/,JARAGUA,5316.70136363636,22.0,0.739034482758621,0.418965517241379,74.8689655172414,711.43275862069,PALMEIRAS-BARRA FUNDA,VERMELHA,11048.7378139353,-23.4422870002322,-46.7264429002071
1805,219900,4886.67,45,2,1,315.0,0,1,0,0,0,"Avenida Professor Miguel Franchini Neto, 240 - Jaragua, São Paulo - SP",https://www.vivareal.com.br/imovel/apartamento-2-quartos-jaragua-zona-norte-sao-paulo-com-garagem-45m2-venda-RS219900-id-2600989059/,JARAGUA,5316.70136363636,22.0,0.739034482758621,0.418965517241379,74.8689655172414,711.43275862069,PALMEIRAS-BARRA FUNDA,VERMELHA,10804.7369784467,-23.4439920002322,-46.7249027002071
1807,200000,3571.43,56,2,1,390000.0,0,1,0,0,0,"Rua Carlo Pallavicino, 260 - Jaragua, São Paulo - SP",https://www.vivareal.com.br/imovel/apartamento-2-quartos-jaragua-zona-norte-sao-paulo-com-garagem-56m2-venda-RS200000-id-2587515921/,JARAGUA,5316.70136363636,22.0,0.739034482758621,0.418965517241379,74.8689655172414,711.43275862069,PALMEIRAS-BARRA FUNDA,VERMELHA,10399.5404658398,-23.4552810002315,-46.7345948002066
1808,190000,4418.6,43,2,0,320.0,0,1,0,0,0,"Rua Friedrich Von Voith - Jaragua, São Paulo - SP",https://www.vivareal.com.br/imovel/apartamento-2-quartos-jaragua-zona-norte-sao-paulo-43m2-venda-RS190000-id-2454421007/,JARAGUA,5316.70136363636,22.0,0.739034482758621,0.418965517241379,74.8689655172414,711.43275862069,PALMEIRAS-BARRA FUNDA,VERMELHA,12116.84369556,-23.4395346002318,-46.7402903002072
1809,205000,6406.25,32,2,0,200.0,0,1,0,0,0,"Rua Padre Eduardo Lustosa, 3581 - Jaragua, São Paulo - SP",https://www.vivareal.com.br/imovel/apartamento-2-quartos-jaragua-zona-norte-sao-paulo-32m2-venda-RS205000-id-2508978582/,JARAGUA,5316.70136363636,22.0,0.739034482758621,0.418965517241379,74.8689655172414,711.43275862069,PALMEIRAS-BARRA FUNDA,VERMELHA,10442.4266950818,-23.4603705002311,-46.7410206002064
1811,248000,5511.11,45,2,1,240.0,0,1,0,0,0,"Rua Jairo de Almeida Machado - Jaragua, São Paulo - SP",https://www.vivareal.com.br/imovel/apartamento-2-quartos-jaragua-zona-norte-sao-paulo-com-garagem-45m2-venda-RS248000-id-2536478670/,JARAGUA,5316.70136363636,22.0,0.739034482758621,0.418965517241379,74.8689655172414,711.43275862069,PALMEIRAS-BARRA FUNDA,VERMELHA,11048.7378139353,-23.4422870002322,-46.7264429002071
1812,229000,5585.37,41,2,1,282.0,0,1,0,0,0,"Jaragua, São Paulo - SP",https://www.vivareal.com.br/imovel/apartamento-2-quartos-jaragua-zona-norte-sao-paulo-com-garagem-41m2-venda-RS229000-id-2616202560/,JARAGUA,5316.70136363636,22.0,0.739034482758621,0.418965517241379,74.8689655172414,711.43275862069,PALMEIRAS-BARRA FUNDA,VERMELHA,10868.8232479128,-23.4574972002311,-46.7438130002065
1813,230000,5111.11,45,2,1,251.0,0,1,0,0,1,"Rua Jairo de Almeida Machado - Jaragua, São Paulo - SP",https://www.vivareal.com.br/imovel/apartamento-2-quartos-jaragua-zona-norte-sao-paulo-com-garagem-45m2-venda-RS230000-id-2615832026/,JARAGUA,5316.70136363636,22.0,0.739034482758621,0.418965517241379,74.8689655172414,711.43275862069,PALMEIRAS-BARRA FUNDA,VERMELHA,11048.7378139353,-23.4422870002322,-46.7264429002071
1814,320000,5517.24,58,3,1,169.0,0,1,0,0,0,"Estrada Turística do Jaraguá, 2400 - Jaragua, São Paulo - SP",https://www.vivareal.com.br/imovel/apartamento-3-quartos-jaragua-zona-norte-sao-paulo-com-garagem-58m2-venda-RS320000-id-2583482997/,JARAGUA,5316.70136363636,22.0,0.739034482758621,0.418965517241379,74.8689655172414,711.43275862069,VILA MADALENA,VERDE,10557.2153310827,-23.4712228002303,-46.754589800206
1815,265000,5196.08,51,2,2,370.0,0,1,0,0,0,"Rua Vale das Flores, 932 - Jaragua, São Paulo - SP",https://www.vivareal.com.br/imovel/apartamento-2-quartos-jaragua-zona-norte-sao-paulo-com-garagem-51m2-venda-RS265000-id-2571900180/,JARAGUA,5316.70136363636,22.0,0.739034482758621,0.418965517241379,74.8689655172414,711.43275862069,PALMEIRAS-BARRA FUNDA,VERMELHA,12508.007363271,-23.4405348002316,-46.7476604002071
2198,848000,10734.18,79,3,1,900.0,1,4,0,0,0,"Alameda Joaquim Eugênio de Lima - Bela Vista, São Paulo - SP",https://www.vivareal.com.br/imovel/apartamento-3-quartos-bela-vista-centro-sao-paulo-com-garagem-79m2-venda-RS848000-id-2616749438/,JARDIM PAULISTA,10478.2,2.0,0.94125,0.5475,81.845,6616.06,BRIGADEIRO,VERDE,459.829713418878,-23.5667304002307,-46.6514238002026
2206,1290000,16125.0,80,2,2,852.0,1,3,1,0,1,"Alameda Joaquim Eugênio de Lima, 0 - Bela Vista, São Paulo - SP",https://www.vivareal.com.br/imovel/apartamento-2-quartos-bela-vista-centro-sao-paulo-com-garagem-80m2-venda-RS1290000-id-2526694740/,JARDIM PAULISTA,10478.2,2.0,0.94125,0.5475,81.845,6616.06,BRIGADEIRO,VERDE,459.829713418878,-23.5667304002307,-46.6514238002026
2220,1170000,8239.44,142,2,2,3640.0,1,3,0,0,0,"Rua Bela Cintra, 1611 - Consolação, São Paulo - SP",https://www.vivareal.com.br/imovel/apartamento-2-quartos-consolacao-centro-sao-paulo-com-garagem-142m2-venda-RS1170000-id-2544607187/,JARDIM PAULISTA,10478.2,2.0,0.94125,0.5475,81.845,6616.06,CONSOLAÇÃO,VERDE,490.277288477132,-23.5599312002305,-46.6653169002028
2235,460000,10222.22,45,1,1,690.0,0,1,1,0,0,"Rua Bela Cintra, 1000 - Consolação, São Paulo - SP",https://www.vivareal.com.br/imovel/apartamento-1-quartos-consolacao-centro-sao-paulo-com-garagem-45m2-venda-RS460000-id-2603908981/,JARDIM PAULISTA,10478.2,2.0,0.94125,0.5475,81.845,6616.06,CONSOLAÇÃO,VERDE,107.327849800398,-23.5566480002307,-46.662235000203
696,160000,3720.93,43,2,1,315.0,0,1,0,0,1,"Rua Cruz do Espírito Santo - Lajeado, São Paulo - SP",https://www.vivareal.com.br/imovel/apartamento-2-quartos-lajeado-zona-leste-sao-paulo-com-garagem-43m2-venda-RS160000-id-2571447442/,LAJEADO,3997.06933333333,15.0,0.698,0.421052631578947,72.6342105263158,532.371578947368,CORINTHIANS-ITAQUERA,VERMELHA,6466.62696197984,-23.53406530024,-46.4086483002039
700,190000,3653.85,52,2,1,280.0,0,1,0,0,1,"Rua Cruz do Espírito Santo - Lajeado, São Paulo - SP",https://www.vivareal.com.br/imovel/apartamento-2-quartos-lajeado-zona-leste-sao-paulo-com-garagem-52m2-venda-RS190000-id-2605184017/,LAJEADO,3997.06933333333,15.0,0.698,0.421052631578947,72.6342105263158,532.371578947368,CORINTHIANS-ITAQUERA,VERMELHA,6466.62696197984,-23.53406530024,-46.4086483002039
706,199000,4738.1,42,2,1,300.0,0,1,0,0,0,"Rua Cruz do Espírito Santo, 854 - Lajeado, São Paulo - SP",https://www.vivareal.com.br/imovel/apartamento-2-quartos-lajeado-zona-leste-sao-paulo-com-garagem-42m2-venda-RS199000-id-2597152929/,LAJEADO,3997.06933333333,15.0,0.698,0.421052631578947,72.6342105263158,532.371578947368,CORINTHIANS-ITAQUERA,VERMELHA,6780.81891375035,-23.5337998002401,-46.4055809002039
707,160000,3200.0,50,3,1,206.0,0,1,0,0,0,"Rua Antônio Thadeo - Lajeado, São Paulo - SP",https://www.vivareal.com.br/imovel/apartamento-3-quartos-lajeado-zona-leste-sao-paulo-com-garagem-50m2-venda-RS160000-id-2540735777/,LAJEADO,3997.06933333333,15.0,0.698,0.421052631578947,72.6342105263158,532.371578947368,CORINTHIANS-ITAQUERA,VERMELHA,6720.1546903589,-23.5409468002399,-46.4055369002036
709,159300,3792.86,42,2,1,220.0,0,1,0,0,0,"Rua João da Silva Aguiar, 542 - Lajeado, São Paulo - SP",https://www.vivareal.com.br/imovel/apartamento-2-quartos-lajeado-zona-leste-sao-paulo-com-garagem-42m2-venda-RS159300-id-2608379505/,LAJEADO,3997.06933333333,15.0,0.698,0.421052631578947,72.6342105263158,532.371578947368,CORINTHIANS-ITAQUERA,VERMELHA,7606.00556409149,-23.5386884002402,-46.3969499002037
711,196000,4083.33,48,2,1,280.0,0,1,0,0,0,"Rua Cruz do Espírito Santo - Lajeado, São Paulo - SP",https://www.vivareal.com.br/imovel/apartamento-2-quartos-lajeado-zona-leste-sao-paulo-com-garagem-48m2-venda-RS196000-id-2536680381/,LAJEADO,3997.06933333333,15.0,0.698,0.421052631578947,72.6342105263158,532.371578947368,CORINTHIANS-ITAQUERA,VERMELHA,6466.62696197984,-23.53406530024,-46.4086483002039
713,205000,4880.95,42,2,0,,0,1,0,0,0,"Rua Antônio Thadeo, 20 - Lajeado, São Paulo - SP",https://www.vivareal.com.br/imovel/apartamento-2-quartos-lajeado-zona-leste-sao-paulo-42m2-venda-RS205000-id-2577602199/,LAJEADO,3997.06933333333,15.0,0.698,0.421052631578947,72.6342105263158,532.371578947368,CORINTHIANS-ITAQUERA,VERMELHA,6697.6424132828,-23.5444050002397,-46.4057752002035
715,200000,4761.9,42,2,1,280.0,0,1,0,0,1,"Rua Cruz do Espírito Santo - Lajeado, São Paulo - SP",https://www.vivareal.com.br/imovel/apartamento-2-quartos-lajeado-zona-leste-sao-paulo-com-garagem-42m2-venda-RS200000-id-2535679888/,LAJEADO,3997.06933333333,15.0,0.698,0.421052631578947,72.6342105263158,532.371578947368,CORINTHIANS-ITAQUERA,VERMELHA,6466.62696197984,-23.53406530024,-46.4086483002039
720,199000,4738.1,42,2,1,300.0,0,1,0,0,0,"Rua Cruz do Espírito Santo, 854 - Lajeado, São Paulo - SP",https://www.vivareal.com.br/imovel/apartamento-2-quartos-lajeado-zona-leste-sao-paulo-com-garagem-42m2-venda-RS199000-id-2597238255/,LAJEADO,3997.06933333333,15.0,0.698,0.421052631578947,72.6342105263158,532.371578947368,CORINTHIANS-ITAQUERA,VERMELHA,6780.81891375035,-23.5337998002401,-46.4055809002039
723,160000,3809.52,42,2,1,315.0,0,1,0,0,1,"Rua Cruz do Espírito Santo - Lajeado, São Paulo - SP",https://www.vivareal.com.br/imovel/apartamento-2-quartos-lajeado-zona-leste-sao-paulo-com-garagem-42m2-venda-RS160000-id-2586415267/,LAJEADO,3997.06933333333,15.0,0.698,0.421052631578947,72.6342105263158,532.371578947368,CORINTHIANS-ITAQUERA,VERMELHA,6466.62696197984,-23.53406530024,-46.4086483002039
725,170000,3953.49,43,2,1,272.0,0,1,0,0,1,"Rua Cruz do Espírito Santo, 360 - Guaianases, São Paulo - SP",https://www.vivareal.com.br/imovel/apartamento-2-quartos-guaianases-zona-leste-sao-paulo-com-garagem-43m2-venda-RS170000-id-2560834126/,LAJEADO,3997.06933333333,15.0,0.698,0.421052631578947,72.6342105263158,532.371578947368,CORINTHIANS-ITAQUERA,VERMELHA,6426.15535467826,-23.53452960024,-46.4089779002039
733,170000,3541.67,48,2,1,,0,1,0,1,1,"Rua Cabo das Tormentas, 254 - Guaianases, São Paulo - SP",https://www.vivareal.com.br/imovel/apartamento-2-quartos-guaianases-zona-leste-sao-paulo-com-garagem-48m2-venda-RS170000-id-2615142311/,LAJEADO,3997.06933333333,15.0,0.698,0.421052631578947,72.6342105263158,532.371578947368,CORINTHIANS-ITAQUERA,VERMELHA,7794.98119912925,-23.5307012002405,-46.396051200204
735,180000,3600.0,50,2,1,,0,1,0,0,0,"Rua Doutor José Gravonski, 280 - Guaianases, São Paulo - SP",https://www.vivareal.com.br/imovel/apartamento-2-quartos-guaianases-zona-leste-sao-paulo-com-garagem-50m2-venda-RS180000-id-2611990776/,LAJEADO,3997.06933333333,15.0,0.698,0.421052631578947,72.6342105263158,532.371578947368,CORINTHIANS-ITAQUERA,VERMELHA,6735.38612569737,-23.5286756002402,-46.4070679002041
745,175000,3723.4,47,2,1,250.0,0,1,0,1,1,"Rua Cabo das Tormentas, 254 - Guaianases, São Paulo - SP",https://www.vivareal.com.br/imovel/apartamento-2-quartos-guaianases-zona-leste-sao-paulo-com-garagem-47m2-venda-RS175000-id-2528062491/,LAJEADO,3997.06933333333,15.0,0.698,0.421052631578947,72.6342105263158,532.371578947368,CORINTHIANS-ITAQUERA,VERMELHA,7794.98119912925,-23.5307012002405,-46.396051200204
749,180000,3750.0,48,2,1,250.0,0,1,0,0,0,"Rua Cruz do Espírito Santo, 470 - Guaianases, São Paulo - SP",https://www.vivareal.com.br/imovel/apartamento-2-quartos-guaianases-zona-leste-sao-paulo-com-garagem-48m2-venda-RS180000-id-2596433728/,LAJEADO,3997.06933333333,15.0,0.698,0.421052631578947,72.6342105263158,532.371578947368,CORINTHIANS-ITAQUERA,VERMELHA,6503.09597476237,-23.53378640024,-46.4083315002039
755,220000,4888.89,45,2,1,287.0,0,1,0,0,1,"Estrada Dom João Nery, 3988 - Guaianases, São Paulo - SP",https://www.vivareal.com.br/imovel/apartamento-2-quartos-guaianases-zona-leste-sao-paulo-com-garagem-45m2-venda-RS220000-id-2614465793/,LAJEADO,3997.06933333333,15.0,0.698,0.421052631578947,72.6342105263158,532.371578947368,CORINTHIANS-ITAQUERA,VERMELHA,7689.56361533322,-23.5266234002406,-46.3979910002041
1194,1120000,11914.89,94,2,2,950.0,2,3,1,0,0,"Rua Duílio - Barra Funda, São Paulo - SP",https://www.vivareal.com.br/imovel/apartamento-2-quartos-barra-funda-zona-oeste-sao-paulo-com-garagem-94m2-venda-RS1120000-id-2555398876/,LAPA,8253.30833333333,18.0,0.911,0.5125,80.83,3361.1275,VILA MADALENA,VERDE,2270.96386682405,-23.5260433002306,-46.6931723002041
1219,600000,7407.41,81,3,1,1478.0,1,2,0,0,0,"Rua Croata - Lapa, São Paulo - SP",https://www.vivareal.com.br/imovel/apartamento-3-quartos-lapa-zona-oeste-sao-paulo-com-garagem-81m2-venda-RS600000-id-2446258279/,LAPA,8253.30833333333,18.0,0.911,0.5125,80.83,3361.1275,VILA MADALENA,VERDE,2376.1226561366,-23.5292042002301,-46.7049452002039
1220,440000,8800.0,50,2,1,300.0,0,1,0,0,0,"Rua Francisco Corazza, 100 - Lapa, São Paulo - SP",https://www.vivareal.com.br/imovel/apartamento-2-quartos-lapa-zona-oeste-sao-paulo-com-garagem-50m2-venda-RS440000-id-2616525395/,LAPA,8253.30833333333,18.0,0.911,0.5125,80.83,3361.1275,PALMEIRAS-BARRA FUNDA,VERMELHA,3666.66957171468,-23.5101320002309,-46.6991374002046
1221,550000,9166.67,60,2,1,650.0,1,2,0,0,0,"Rua George Smith, 357 - Lapa, São Paulo - SP",https://www.vivareal.com.br/imovel/apartamento-2-quartos-lapa-zona-oeste-sao-paulo-com-garagem-60m2-venda-RS550000-id-2616468486/,LAPA,8253.30833333333,18.0,0.911,0.5125,80.83,3361.1275,VILA MADALENA,VERDE,3195.30347019444,-23.5208442002304,-46.7055150002042
1222,80000,1428.57,56,3,1,,1,2,0,0,0,"Rua Marina Ciufuli Zanfelice, 176 - Lapa, São Paulo - SP",https://www.vivareal.com.br/imovel/apartamento-3-quartos-lapa-zona-oeste-sao-paulo-com-garagem-56m2-venda-RS80000-id-2616853739/,LAPA,8253.30833333333,18.0,0.911,0.5125,80.83,3361.1275,VILA MADALENA,VERDE,3979.04059447983,-23.5131840002306,-46.7058095002045
1223,499000,8048.39,62,3,1,,1,2,0,0,0,"Rua Francisco Corazza - Lapa, São Paulo - SP",https://www.vivareal.com.br/imovel/apartamento-3-quartos-lapa-zona-oeste-sao-paulo-com-garagem-62m2-venda-RS499000-id-2465930404/,LAPA,8253.30833333333,18.0,0.911,0.5125,80.83,3361.1275,PALMEIRAS-BARRA FUNDA,VERMELHA,3691.23384723579,-23.509845300231,-46.6992407002046
1224,427300,8546.0,50,2,1,450.0,0,1,1,1,1,"Rua Francisco Corazza, 100 - Lapa, São Paulo - SP",https://www.vivareal.com.br/imovel/apartamento-2-quartos-lapa-zona-oeste-sao-paulo-com-garagem-50m2-venda-RS427300-id-2596278486/,LAPA,8253.30833333333,18.0,0.911,0.5125,80.83,3361.1275,PALMEIRAS-BARRA FUNDA,VERMELHA,3666.66957171468,-23.5101320002309,-46.6991374002046
1225,474310,7650.16,62,3,1,401.0,1,2,1,0,0,"Rua Gino Cesaro, 103 - Lapa, São Paulo - SP",https://www.vivareal.com.br/imovel/apartamento-3-quartos-lapa-zona-oeste-sao-paulo-com-garagem-62m2-venda-RS474310-id-2501221381/,LAPA,8253.30833333333,18.0,0.911,0.5125,80.83,3361.1275,PALMEIRAS-BARRA FUNDA,VERMELHA,3540.57743085419,-23.5113148002309,-46.6984217002046
1227,439743,8622.41,51,2,1,387.0,1,2,1,0,0,"Rua Francisco Corazza, 101 - Lapa, São Paulo - SP",https://www.vivareal.com.br/imovel/apartamento-2-quartos-lapa-zona-oeste-sao-paulo-com-garagem-51m2-venda-RS439743-id-2498284577/,LAPA,8253.30833333333,18.0,0.911,0.5125,80.83,3361.1275,PALMEIRAS-BARRA FUNDA,VERMELHA,3697.54878101062,-23.5100825002309,-46.6994525002046
1228,1390000,15108.7,92,2,2,1200.0,2,3,1,1,1,"Rua Cuevas, 100 - Lapa, São Paulo - SP",https://www.vivareal.com.br/imovel/apartamento-2-quartos-lapa-zona-oeste-sao-paulo-com-garagem-92m2-venda-RS1390000-id-2508442298/,LAPA,8253.30833333333,18.0,0.911,0.5125,80.83,3361.1275,VILA MADALENA,VERDE,3364.03094184202,-23.5231822002301,-46.7122817002041
1229,288000,5052.63,57,2,1,500.0,0,1,0,0,0,"Rua Ricardo Cavatton, 287 - Lapa, São Paulo - SP",https://www.vivareal.com.br/imovel/apartamento-2-quartos-lapa-zona-oeste-sao-paulo-com-garagem-57m2-venda-RS288000-id-2616660969/,LAPA,8253.30833333333,18.0,0.911,0.5125,80.83,3361.1275,PALMEIRAS-BARRA FUNDA,VERMELHA,4091.53823360265,-23.5098234002308,-46.7036464002046
1230,682100,11001.61,62,2,1,,1,2,1,1,0,"Rua Rumaica - Lapa, São Paulo - SP",https://www.vivareal.com.br/imovel/apartamento-2-quartos-lapa-zona-oeste-sao-paulo-com-garagem-62m2-venda-RS682100-id-2565217527/,LAPA,8253.30833333333,18.0,0.911,0.5125,80.83,3361.1275,VILA MADALENA,VERDE,2214.98376032332,-23.5331508002299,-46.7073094002038
1231,525000,11170.21,47,1,1,580.0,0,1,0,0,0,"Rua Dom João V, 610 - Lapa, São Paulo - SP",https://www.vivareal.com.br/imovel/apartamento-1-quartos-lapa-zona-oeste-sao-paulo-com-garagem-47m2-venda-RS525000-id-2567558750/,LAPA,8253.30833333333,18.0,0.911,0.5125,80.83,3361.1275,VILA MADALENA,VERDE,3045.42827391522,-23.5247092002301,-46.7093647002041
1233,441000,8820.0,50,2,1,350.0,1,2,0,0,0,"Rua Francisco Corazza, 100 - Lapa, São Paulo - SP",https://www.vivareal.com.br/imovel/apartamento-2-quartos-lapa-zona-oeste-sao-paulo-com-garagem-50m2-venda-RS441000-id-2507322843/,LAPA,8253.30833333333,18.0,0.911,0.5125,80.83,3361.1275,PALMEIRAS-BARRA FUNDA,VERMELHA,3666.66957171468,-23.5101320002309,-46.6991374002046
1234,1630000,12164.18,134,3,2,693.0,3,4,1,0,1,"Avenida Raimundo Pereira de Magalhães, 555 - Lapa, São Paulo - SP",https://www.vivareal.com.br/imovel/apartamento-3-quartos-lapa-zona-oeste-sao-paulo-com-garagem-134m2-venda-RS1630000-id-2521044391/,LAPA,8253.30833333333,18.0,0.911,0.5125,80.83,3361.1275,VILA MADALENA,VERDE,4092.44108613221,-23.5156331002303,-46.7132155002044
1235,420000,8400.0,50,2,1,450.0,1,2,1,0,1,"Rua Francisco Corazza, 100 - Lapa, São Paulo - SP",https://www.vivareal.com.br/imovel/apartamento-2-quartos-lapa-zona-oeste-sao-paulo-com-garagem-50m2-venda-RS420000-id-2548250473/,LAPA,8253.30833333333,18.0,0.911,0.5125,80.83,3361.1275,PALMEIRAS-BARRA FUNDA,VERMELHA,3666.66957171468,-23.5101320002309,-46.6991374002046
1236,760000,11014.49,69,2,1,750.0,1,2,1,0,1,"Rua Martinho de Campos - Lapa, São Paulo - SP",https://www.vivareal.com.br/imovel/apartamento-2-quartos-lapa-zona-oeste-sao-paulo-com-garagem-69m2-venda-RS760000-id-2615653721/,LAPA,8253.30833333333,18.0,0.911,0.5125,80.83,3361.1275,VILA MADALENA,VERDE,4553.11405004042,-23.51579250023,-46.7208129002044
1237,380000,6440.68,59,2,1,400.0,0,2,1,1,0,"Rua George Smith, 357 - Lapa, São Paulo - SP",https://www.vivareal.com.br/imovel/apartamento-2-quartos-lapa-zona-oeste-sao-paulo-com-garagem-59m2-venda-RS380000-id-2616252424/,LAPA,8253.30833333333,18.0,0.911,0.5125,80.83,3361.1275,VILA MADALENA,VERDE,3195.30347019444,-23.5208442002304,-46.7055150002042
1239,497950,9053.64,55,2,1,385.0,1,1,1,0,0,"Rua Fortunato Ferraz, 365 - Lapa, São Paulo - SP",https://www.vivareal.com.br/imovel/apartamento-2-quartos-lapa-zona-oeste-sao-paulo-com-garagem-55m2-venda-RS497950-id-2529928330/,LAPA,8253.30833333333,18.0,0.911,0.5125,80.83,3361.1275,VILA MADALENA,VERDE,3987.7770730736,-23.5185857002301,-46.7158382002043
1240,1549980,9872.48,157,4,2,680.0,3,5,0,0,0,"Rua Fortunato Ferraz, 280 - Lapa, São Paulo - SP",https://www.vivareal.com.br/imovel/apartamento-4-quartos-lapa-zona-oeste-sao-paulo-com-garagem-157m2-venda-RS1549980-id-2542800874/,LAPA,8253.30833333333,18.0,0.911,0.5125,80.83,3361.1275,VILA MADALENA,VERDE,3939.75708294745,-23.5182039002302,-46.7145566002043
1241,875000,10057.47,87,3,2,725.0,1,2,1,1,1,"Avenida Raimundo Pereira de Magalhães, 757 - Lapa, São Paulo - SP",https://www.vivareal.com.br/imovel/apartamento-3-quartos-lapa-zona-oeste-sao-paulo-com-garagem-87m2-venda-RS875000-id-2578800206/,LAPA,8253.30833333333,18.0,0.911,0.5125,80.83,3361.1275,VILA MADALENA,VERDE,4302.15388436493,-23.5137651002303,-46.7138676002045
1242,239100,6462.16,37,2,0,260.0,0,1,1,0,0,"Avenida Santa Marina, 1485 - Lapa, São Paulo - SP",https://www.vivareal.com.br/imovel/apartamento-2-quartos-lapa-zona-oeste-sao-paulo-37m2-venda-RS239100-id-2535864803/,LAPA,8253.30833333333,18.0,0.911,0.5125,80.83,3361.1275,PALMEIRAS-BARRA FUNDA,VERMELHA,3011.03920187944,-23.5121268002311,-46.6929818002046
1243,480155,8730.09,55,3,1,391.0,0,1,1,1,1,"Rua Marina Ciufuli Zanfelice, 182 - Lapa, São Paulo - SP",https://www.vivareal.com.br/imovel/apartamento-3-quartos-lapa-zona-oeste-sao-paulo-com-garagem-55m2-venda-RS480155-id-2535046799/,LAPA,8253.30833333333,18.0,0.911,0.5125,80.83,3361.1275,VILA MADALENA,VERDE,4025.09179723815,-23.5128356002306,-46.7060770002045
1245,837800,9206.59,91,3,1,1.0,1,2,1,0,1,"Rua Fortunato Ferraz, 280 - Lapa, São Paulo - SP",https://www.vivareal.com.br/imovel/apartamento-3-quartos-lapa-zona-oeste-sao-paulo-com-garagem-91m2-venda-RS837800-id-2584768552/,LAPA,8253.30833333333,18.0,0.911,0.5125,80.83,3361.1275,VILA MADALENA,VERDE,3939.75708294745,-23.5182039002302,-46.7145566002043
1246,1749000,10796.3,162,3,3,,1,3,1,0,0,"Lapa, São Paulo - SP",https://www.vivareal.com.br/imovel/apartamento-3-quartos-lapa-zona-oeste-sao-paulo-com-garagem-162m2-venda-RS1749000-id-2615527820/,LAPA,8253.30833333333,18.0,0.911,0.5125,80.83,3361.1275,VILA MADALENA,VERDE,3346.95574046219,-23.5227337002301,-46.7114185002041
1247,1190000,12795.7,93,3,2,975.0,1,3,1,0,1,"Lapa, São Paulo - SP",https://www.vivareal.com.br/imovel/apartamento-3-quartos-lapa-zona-oeste-sao-paulo-com-garagem-93m2-venda-RS1190000-id-2512730130/,LAPA,8253.30833333333,18.0,0.911,0.5125,80.83,3361.1275,VILA MADALENA,VERDE,3346.95574046219,-23.5227337002301,-46.7114185002041
1249,852000,10784.81,79,3,2,600.0,1,3,0,0,0,"Rua Fortunato Ferraz - Lapa, São Paulo - SP",https://www.vivareal.com.br/imovel/apartamento-3-quartos-lapa-zona-oeste-sao-paulo-com-garagem-79m2-venda-RS852000-id-2480632829/,LAPA,8253.30833333333,18.0,0.911,0.5125,80.83,3361.1275,VILA MADALENA,VERDE,4245.11700640288,-23.5175029002301,-46.7183555002043
1251,1845000,11114.46,166,3,3,2183.0,3,5,0,0,0,"Rua Roma - Lapa, São Paulo - SP",https://www.vivareal.com.br/imovel/apartamento-3-quartos-lapa-zona-oeste-sao-paulo-com-garagem-166m2-venda-RS1845000-id-2616062724/,LAPA,8253.30833333333,18.0,0.911,0.5125,80.83,3361.1275,VILA MADALENA,VERDE,2842.90137201031,-23.5227259002305,-46.7017216002042
1719,950000,10326.09,92,2,2,850.0,1,3,1,0,0,"Avenida Diógenes Ribeiro de Lima, 2991 - Alto de Pinheiros, São Paulo - SP",https://www.vivareal.com.br/imovel/apartamento-2-quartos-alto-de-pinheiros-zona-oeste-sao-paulo-com-garagem-92m2-venda-RS950000-id-2616824826/,LAPA,8253.30833333333,18.0,0.911,0.5125,80.83,3361.1275,VILA MADALENA,VERDE,3114.10946015861,-23.5346669002295,-46.7188043002037
2151,400000,6349.21,63,2,1,650.0,1,2,0,0,0,"Rua Diogo Vaz - Liberdade, São Paulo - SP",https://www.vivareal.com.br/imovel/apartamento-2-quartos-liberdade-centro-sao-paulo-com-garagem-63m2-venda-RS400000-id-2616754368/,LIBERDADE,7316.97230769231,13.0,0.836833333333333,0.468333333333333,79.19,1937.82666666667,SÃO JOAQUIM,AZUL,1111.11370919579,-23.5626891002317,-46.6281033002028
2152,596000,7180.72,83,2,1,650.0,0,1,0,0,0,"Rua Tamandaré - Liberdade, São Paulo - SP",https://www.vivareal.com.br/imovel/apartamento-2-quartos-liberdade-centro-sao-paulo-com-garagem-83m2-venda-RS596000-id-2553549835/,LIBERDADE,7316.97230769231,13.0,0.836833333333333,0.468333333333333,79.19,1937.82666666667,SÃO JOAQUIM,AZUL,470.319307817757,-23.5638013002314,-46.6347974002027
2155,590000,10925.93,54,2,1,630.0,0,1,0,0,0,"Rua da Glória, 674 - Liberdade, São Paulo - SP",https://www.vivareal.com.br/imovel/apartamento-2-quartos-liberdade-centro-sao-paulo-com-garagem-54m2-venda-RS590000-id-2615982890/,LIBERDADE,7316.97230769231,13.0,0.836833333333333,0.468333333333333,79.19,1937.82666666667,JAPÃO-LIBERDADE,AZUL,536.961521294057,-23.5596350002316,-46.6342959002029
2157,545000,8014.71,68,2,1,514.0,0,2,0,0,0,"Rua Fagundes - Liberdade, São Paulo - SP",https://www.vivareal.com.br/imovel/apartamento-2-quartos-liberdade-centro-sao-paulo-com-garagem-68m2-venda-RS545000-id-2611282561/,LIBERDADE,7316.97230769231,13.0,0.836833333333333,0.468333333333333,79.19,1937.82666666667,SÃO JOAQUIM,AZUL,388.622992645992,-23.5596568002315,-46.6361089002029
2158,353000,6788.46,52,2,1,650.0,0,1,0,0,0,"Liberdade, São Paulo - SP",https://www.vivareal.com.br/imovel/apartamento-2-quartos-liberdade-centro-sao-paulo-com-garagem-52m2-venda-RS353000-id-2580920106/,LIBERDADE,7316.97230769231,13.0,0.836833333333333,0.468333333333333,79.19,1937.82666666667,JAPÃO-LIBERDADE,AZUL,724.500928891686,-23.5599169002316,-46.6312586002029
2161,297000,7815.79,38,1,0,455.0,0,1,0,0,0,"Rua Conselheiro Furtado, 1107 - Liberdade, São Paulo - SP",https://www.vivareal.com.br/imovel/apartamento-1-quartos-liberdade-centro-sao-paulo-38m2-venda-RS297000-id-2616341047/,LIBERDADE,7316.97230769231,13.0,0.836833333333333,0.468333333333333,79.19,1937.82666666667,SÃO JOAQUIM,AZUL,672.117400005463,-23.5627791002315,-46.6324335002028
2162,734060,10486.57,70,2,1,693.0,1,2,1,0,0,"Rua Tamandaré, 340 - Liberdade, São Paulo - SP",https://www.vivareal.com.br/imovel/apartamento-2-quartos-liberdade-centro-sao-paulo-com-garagem-70m2-venda-RS734060-id-2608594681/,LIBERDADE,7316.97230769231,13.0,0.836833333333333,0.468333333333333,79.19,1937.82666666667,SÃO JOAQUIM,AZUL,555.21403077975,-23.5621039002315,-46.6335232002028
